<map map_file="maps/czech_republic.swf" tl_long="12.090646" tl_lat="51.054984" br_long="18.859227" br_lat="48.5518" zoom="92%" zoom_x="5.25%" zoom_y="26.05%">
                        <areas>
                          <area mc_name="CZ_JC" title="Jihočeský" zoom="342.8571%" zoom_x="-71.74%" zoom_y="-205.74%"></area>
                          <area mc_name="CZ_JM" title="Jihomoravský" zoom="342.8571%" zoom_x="-179%" zoom_y="-197.09%"></area>
                          <area mc_name="CZ_KA" title="Karlovarský " zoom="550.2976%" zoom_x="0.42%" zoom_y="-128.81%"></area>
                          <area mc_name="CZ_KR" title="Královéhradecký" zoom="446.5942%" zoom_x="-197.85%" zoom_y="-49.32%"></area>
                          <area mc_name="CZ_LI" title="Liberecký" zoom="513.6905%" zoom_x="-169.74%" zoom_y="1.54%"></area>
                          <area mc_name="CZ_MO" title="Moravskoslezský" zoom="391.6667%" zoom_x="-291.87%" zoom_y="-125.72%"></area>
                          <area mc_name="CZ_OL" title="Olomoucký" zoom="403.869%" zoom_x="-258.59%" zoom_y="-150.14%"></area>
                          <area mc_name="CZ_PA" title="Pardubický" zoom="446.5942%" zoom_x="-215.82%" zoom_y="-139.23%"></area>
                          <area mc_name="CZ_PL" title="Plzeňský" zoom="349.9895%" zoom_x="-6.3%" zoom_y="-139.68%"></area>
                          <area mc_name="CZ_PR" title="Praha" zoom="1380.0595%" zoom_x="-433.53%" zoom_y="-488.93%"></area>
                          <area mc_name="CZ_ST" title="Středočeský" zoom="306.25%" zoom_x="-56.89%" zoom_y="-55.78%"></area>
                          <area mc_name="CZ_US" title="Ústecký" zoom="352.9901%" zoom_x="-40.27%" zoom_y="-3.02%"></area>
                          <area mc_name="CZ_VY" title="Vysočina" zoom="403.869%" zoom_x="-163.16%" zoom_y="-194.33%"></area>
                          <area mc_name="CZ_ZL" title="Zlínský" zoom="513.6905%" zoom_x="-380.44%" zoom_y="-313.98%"></area>
                          <area mc_name="borders" title="borders" color="#FFFFFF" balloon="false"></area>
                        </areas>
                      
                          <labels>
                              <label x="150" y="6" text_size="14" fixed_size="true" color="#FFFFFF" remain="true">
                            <text>Průmyslové pivovary/Industrial Breweries</text>  
                          </label>
                          <label x="150" y="24" text_size="14" fixed_size="true" color="#FFFFFF" remain="true">
                            <text>Minipivovary/Microbreweries</text>  
                          </label>
                          <label x="150" y="42" text_size="14" fixed_size="true" color="#FFFFFF" remain="true">
                            <text>Vybraná města/Selected Cities</text>  
                          </label>
                          <label lat="48.9745342" long="14.4743075" text_size="8" fixed_size="false" color="#FFFFFF" remain="true" active="false">
                            <text>České Budějovice</text>  
                          </label>
                          <label long="13.402513" lat="49.8475177812114" text_size="8" fixed_size="false" color="#FFFFFF" remain="true" active="false">
                            <text>Plzeň</text>  
                          </label>
                          <label long="12.938083" lat="50.2425461734557" text_size="8" fixed_size="false" color="#FFFFFF" remain="true" active="false">
                            <text>Karlovy Vary</text>  
                          </label>
                          <label long="13.977479" lat="50.8150322449082" text_size="8" fixed_size="false" color="#FFFFFF" remain="true" active="false">
                            <text>Ústí nad Labem</text>  
                          </label>
                          <label long="14.969567" lat="50.7259217109395" text_size="8" fixed_size="false" color="#FFFFFF" remain="true" active="false">
                            <text>Liberec</text>  
                          </label>
                          <label long="15.35" lat="50.3478389133877" text_size="8" fixed_size="false" color="#FFFFFF" remain="true" active="false">
                            <text>Hradec Králové</text>  
                          </label>
                          <label long="15.823319" lat="50.0297150495203" text_size="8" fixed_size="false" color="#FFFFFF" remain="true" active="false">
                            <text>Pardubice</text>  
                          </label>
                          <label long="15.560908" lat="49.4904239581391" text_size="8" fixed_size="false" color="#FFFFFF" remain="true" active="false">
                            <text>Jihlava</text>  
                          </label>
                          <label long="16.561639" lat="49.1617271769462" text_size="8" fixed_size="false" color="#FFFFFF" remain="true" active="false">
                            <text>Brno</text>  
                          </label>
                          <label long="17.3" lat="49.6197504513136" text_size="8" fixed_size="false" color="#FFFFFF" remain="true" active="false">
                            <text>Olomouc</text>  
                          </label>
                          <label long="17.726581" lat="49.2424697983017" text_size="8" fixed_size="false" color="#FFFFFF" remain="true" active="false">
                            <text>Zlín</text>  
                          </label>
                          <label long="18.314283" lat="49.88" text_size="8" fixed_size="false" color="#FFFFFF" remain="true" active="false">
                            <text>Ostrava</text>  
                          </label>
                          <label long="14.524997" lat="50.13" text_size="8" fixed_size="false" color="#FFFFFF" remain="true" active="false">
                            <text>Praha</text>  
                          </label>
                          <label long="13.29798" lat="51.2" text_size="8" fixed_size="false" color="#FFFFFF" remain="true" active="false">
                            <text>Dresden</text>  
                          </label>
                          <label long="18.510381" lat="49.35" text_size="8" fixed_size="false" color="#FFFFFF" remain="true" active="false">
                            <text>Žilina</text>  
                          </label>
                          <label long="18.086436" lat="48.9373399911011" text_size="8" fixed_size="false" color="#FFFFFF" remain="true" active="false">
                            <text>Trenčín</text>  
                          </label>
                          <label long="14.346335" lat="48.3169559671637" text_size="8" fixed_size="false" color="#FFFFFF" remain="true" active="false">
                            <text>Linz</text>  
                          </label>
                          <label long="16.345537" lat="50.8242889580178" text_size="8" fixed_size="false" color="#FFFFFF" remain="true" active="false">
                            <text>Wałbrzych</text>  
                          </label>
                          <label long="18.564283" lat="50.0411731522835" text_size="8" fixed_size="false" color="#FFFFFF" remain="true" active="false">
                            <text>Bielsko-Biała</text>  
                          </label>
                          <label long="16.443453" lat="48.2520525959633" text_size="8" fixed_size="false" color="#FFFFFF" remain="true" active="false">
                            <text>Wien</text>  
                          </label>
                          <label long="17.1047789" lat="48.1485364" text_size="8" fixed_size="false" color="#FFFFFF" remain="true" active="false">
                            <text>Bratislava</text>  
                          </label>
                          <label long="13.53948" lat="48.6033862003639" text_size="8" fixed_size="false" color="#FFFFFF" remain="true" active="false">
                            <text>Passau</text>  
                          </label>
                          <label long="12.48" lat="50.9" text_size="8" fixed_size="false" color="#FFFFFF" remain="true" active="false">
                            <text>Chemnitz</text>  
                          </label>
                          <label long="12.103258" lat="50.7529861512216" text_size="8" fixed_size="false" color="#FFFFFF" remain="true" active="false">
                            <text>Zwickau</text>  
                          </label>
                          <label long="18.5" lat="50.27" text_size="8" fixed_size="false" color="#FFFFFF" remain="true" active="false">
                            <text>Katowice</text>  
                          </label>
                          
                        </labels>
                      
                        <movies>
                      <!-- legenda -->  
                           <!-- průmyslové --><movie file="circle" color="#d56e00" active="false" height="15" width="15" x="140" y="16" fixed_size="true" ></movie>
                           <!-- minipivovary --><movie file="target" color="#9b0505" active="false" height="15" width="15" x="140" y="34" fixed_size="true" ></movie>
                           <!-- města --><movie file="circle" color="#000000" active="false" height="15" width="15" x="140" y="52" fixed_size="true" ></movie>
                        
                      <!-- Města -->                                                                            
                           <!-- Budějovice --><movie file="circle" color="#000000" active="false" height="12" width="12" lat="48.9745342" long="14.4743075" fixed_size="false" ></movie>
                           <!-- Plzeň --><movie lat="49.7473139" long="13.37735" file="circle" color="#000000" active="false" height="12" width="12"  fixed_size="false" ></movie>
                           <!-- Karlovy Vary --><movie lat="50.2303608" long="12.8663811" file="circle" color="#000000" active="false" height="12" width="12"  fixed_size="false" ></movie>
                           <!-- Liberec --><movie lat="50.7668883" long="15.0558703" file="circle" color="#000000" active="false" height="12" width="12"  fixed_size="false" ></movie>
                           <!-- Ústí nad Labem --><movie lat="50.6605336" long="14.0331597" file="circle" color="#000000" active="false" height="12" width="12"  fixed_size="false" ></movie>
                           <!-- Hradec Králové --><movie lat="50.2094242" long="15.8331603" file="circle" color="#000000" active="false" height="12" width="12"  fixed_size="false" ></movie>
                           <!-- Pardubice --><movie lat="50.0384836" long="15.7787797" file="circle" color="#000000" active="false" height="12" width="12"  fixed_size="false" ></movie>
                           <!-- Jihlava --><movie lat="49.3958331" long="15.5908272" file="circle" color="#000000" active="false" height="12" width="12"  fixed_size="false" ></movie>
                           <!-- Brno --><movie lat="49.1950206" long="16.6079028" file="circle" color="#000000" active="false" height="12" width="12"  fixed_size="false" ></movie>
                           <!-- Olomouc --><movie lat="49.5939814" long="17.2514089" file="circle" color="#000000" active="false" height="12" width="12"  fixed_size="false" ></movie>
                           <!-- Zlín --><movie lat="49.2266975" long="17.6667250" file="circle" color="#000000" active="false" height="12" width="12"  fixed_size="false" ></movie>
                           <!-- Ostrava --><movie lat="49.8349744" long="18.2821683" file="circle" color="#000000" active="false" height="12" width="12"  fixed_size="false" ></movie>
                           <!-- Žilina --><movie lat="49.2233431" long="18.7392647" file="circle" color="#000000" active="false" height="12" width="12"  fixed_size="false" ></movie>
                           <!-- Trenčín --><movie lat="48.8929844" long="18.0347714" file="circle" color="#000000" active="false" height="12" width="12"  fixed_size="false" ></movie>
                           <!-- Linz --><movie lat="48.3049686" long="14.2881356" file="circle" color="#000000" active="false" height="12" width="12"  fixed_size="false" ></movie>
                           <!-- Dresden --><movie lat="51.0532636" long="13.7394142" file="circle" color="#000000" active="false" height="12" width="12"  fixed_size="false" ></movie>
                           <!-- Wałbrzych--><movie lat="50.7827789" long="16.2845067" file="circle" color="#000000" active="false" height="12" width="12"  fixed_size="false" ></movie>
                           <!-- Bielsko-Biała --><movie lat="49.8248325" long="19.0493281" file="circle" color="#000000" active="false" height="12" width="12"  fixed_size="false" ></movie>
                           <!-- Wien --><movie long="16.3735172" lat="48.2082969" file="circle" color="#000000" active="false" height="12" width="12"  fixed_size="false" ></movie>
                           <!-- Bratislava --><movie long="17.1047789" lat="48.1485364" file="circle" color="#000000" active="false" height="12" width="12"  fixed_size="false" ></movie>
                           <!-- Passau --><movie long="13.4648131" lat="48.5741189" file="circle" color="#000000" active="false" height="12" width="12"  fixed_size="false" ></movie>
                           <!-- Chemnitz --><movie long="12.9237878" lat="50.8364869" file="circle" color="#000000" active="false" height="12" width="12"  fixed_size="false" ></movie>
                           <!-- Zwickau --><movie long="12.4956686" lat="50.7169072" file="circle" color="#000000" active="false" height="12" width="12"  fixed_size="false" ></movie>
                           <!-- Katowice --><movie long="19.0230364" lat="50.2623983" file="circle" color="#000000" active="false" height="12" width="12"  fixed_size="false" ></movie>                    
                    <movie title="Lotters Wirtschaft im Hotel Blauer Engel (Aue)" file="target" height="10" width="10" lat="50.5865881" long="12.7014831" fixed_size="true" url="/pivovary_databaze.php?id=1&tab=pivovary_ostatni&pivovar=Lotters Wirtschaft im Hotel Blauer Engel" target="_blank"></movie>
<movie title="Brauhaus Weltenbummler (Bad Gottleuba-Berggießhübel)" file="target" height="10" width="10" lat="50.8735142" long="13.9461303" fixed_size="true" url="/pivovary_databaze.php?id=2&tab=pivovary_ostatni&pivovar=Brauhaus Weltenbummler" target="_blank"></movie>
<movie title="Bautzener Brauerei" file="target" height="10" width="10" lat="51.1798539" long="14.4397900" fixed_size="true" url="/pivovary_databaze.php?id=3&tab=pivovary_ostatni&pivovar=Bautzener Brauerei" target="_blank"></movie>
<movie title="Frenzel-Bräu (Bautzen)" file="target" height="10" width="10" lat="51.1792619" long="14.4213578" fixed_size="true" url="/pivovary_databaze.php?id=4&tab=pivovary_ostatni&pivovar=Frenzel-Bräu" target="_blank"></movie>
<movie title="Kunos Braugasthaus (Breitenbrunn/Erzgebirge)" file="target" height="10" width="10" lat="50.4725419" long="12.7117611" fixed_size="true" url="/pivovary_databaze.php?id=5&tab=pivovary_ostatni&pivovar=Kunos Braugasthaus" target="_blank"></movie>
<movie title="Brauhaus am Waldschlösschen (Dresden)" file="target" height="10" width="10" lat="51.0683289" long="13.7784650" fixed_size="true" url="/pivovary_databaze.php?id=6&tab=pivovary_ostatni&pivovar=Brauhaus am Waldschlösschen" target="_blank"></movie>
<movie title="Feldschlößchen Aktiengesellschaft (Dresden)" file="circle" color="d56e00" color_hover="ffa200" height="10" width="10" lat="51.0160631" long="13.7076539" fixed_size="true" url="/pivovary_databaze.php?id=7&tab=pivovary_ostatni&pivovar=Feldschlößchen Aktiengesellschaft" target="_blank"></movie>
<movie title="Hausbräu im Ballhaus Watzke (Dresden)" file="target" height="10" width="10" lat="51.0775511" long="13.7157867" fixed_size="true" url="/pivovary_databaze.php?id=8&tab=pivovary_ostatni&pivovar=Hausbräu im Ballhaus Watzke" target="_blank"></movie>
<movie title="Neustädter Hausbrauerei Schwingenheuer Christian (Dresden)" file="target" height="10" width="10" lat="51.0693808" long="13.7469431" fixed_size="true" url="/pivovary_databaze.php?id=10&tab=pivovary_ostatni&pivovar=Neustädter Hausbrauerei Schwingenheuer Christian" target="_blank"></movie>
<movie title="Hausbrauerei Jahn (Dresden-Gorbitz)" file="target" height="10" width="10" lat="51.0423919" long="13.6595461" fixed_size="true" url="/pivovary_databaze.php?id=11&tab=pivovary_ostatni&pivovar=Hausbrauerei Jahn" target="_blank"></movie>
<movie title="Hausbrauerei Laubegast (Dresden-Laubegast)" file="target" height="10" width="10" lat="51.0225558" long="13.8397481" fixed_size="true" url="/pivovary_databaze.php?id=12&tab=pivovary_ostatni&pivovar=Hausbrauerei Laubegast" target="_blank"></movie>
<movie title="Privatbrauerei Specht (Ehrenfriedersdorf)" file="target" height="10" width="10" lat="50.6426300" long="12.9650472" fixed_size="true" url="/pivovary_databaze.php?id=13&tab=pivovary_ostatni&pivovar=Privatbrauerei Specht" target="_blank"></movie>
<movie title="Privatbrauerei Eibau i.Sa. (Eibau)" file="circle" color="d56e00" color_hover="ffa200" height="10" width="10" lat="50.9780750" long="14.6648378" fixed_size="true" url="/pivovary_databaze.php?id=14&tab=pivovary_ostatni&pivovar=Privatbrauerei Eibau i.Sa." target="_blank"></movie>
<movie title="Erlbacher Brauhaus (Erlbach/Vogtland)" file="target" height="10" width="10" lat="50.3143111" long="12.3771722" fixed_size="true" url="/pivovary_databaze.php?id=15&tab=pivovary_ostatni&pivovar=Erlbacher Brauhaus" target="_blank"></movie>
<movie title="Freiberger Brauhaus" file="circle" color="d56e00" color_hover="ffa200" height="10" width="10" lat="50.9320092" long="13.3234550" fixed_size="true" url="/pivovary_databaze.php?id=16&tab=pivovary_ostatni&pivovar=Freiberger Brauhaus" target="_blank"></movie>
<movie title="Brauhaus-Gasthaus Obermühle Görlitz (Görlitz)" file="target" height="10" width="10" lat="51.1439550" long="14.9946433" fixed_size="true" url="/pivovary_databaze.php?id=19&tab=pivovary_ostatni&pivovar=Brauhaus-Gasthaus Obermühle Görlitz" target="_blank"></movie>
<movie title="Landskron Brauerei Görlitz " file="circle" color="d56e00" color_hover="ffa200" height="10" width="10" lat="51.1399000" long="14.9882161" fixed_size="true" url="/pivovary_databaze.php?id=20&tab=pivovary_ostatni&pivovar=Landskron Brauerei Görlitz " target="_blank"></movie>
<movie title="Böhmisch Brauhaus (Großröhrsdorf)" file="circle" color="d56e00" color_hover="ffa200" height="10" width="10" lat="51.1470350" long="14.0176211" fixed_size="true" url="/pivovary_databaze.php?id=21&tab=pivovary_ostatni&pivovar=Böhmisch Brauhaus" target="_blank"></movie>
<movie title="Der Bayerische Hof im Vogtland (Grünbach)" file="target" height="10" width="10" lat="50.4410089" long="12.3643181" fixed_size="true" url="/pivovary_databaze.php?id=22&tab=pivovary_ostatni&pivovar=Der Bayerische Hof im Vogtland" target="_blank"></movie>
<movie title="Altes Brauhaus (Jöhstadt-Steinbach)" file="target" height="10" width="10" lat="50.5551719" long="13.1621150" fixed_size="true" url="/pivovary_databaze.php?id=23&tab=pivovary_ostatni&pivovar=Altes Brauhaus" target="_blank"></movie>
<movie title="Bergquell-Brauerei Löbau" file="circle" color="d56e00" color_hover="ffa200" height="10" width="10" lat="51.1079550" long="14.6589158" fixed_size="true" url="/pivovary_databaze.php?id=24&tab=pivovary_ostatni&pivovar=Bergquell-Brauerei Löbau" target="_blank"></movie>
<movie title="Schloßbräuerei Weesenstein (Müglitztal)" file="target" height="10" width="10" lat="50.9326042" long="13.8600897" fixed_size="true" url="/pivovary_databaze.php?id=25&tab=pivovary_ostatni&pivovar=Schloßbräuerei Weesenstein" target="_blank"></movie>
<movie title="Bierbrauhaus (Obergurig-Kleindöbschütz)" file="target" height="10" width="10" lat="51.1270481" long="14.4177747" fixed_size="true" url="/pivovary_databaze.php?id=26&tab=pivovary_ostatni&pivovar=Bierbrauhaus" target="_blank"></movie>
<movie title="Braun Mühle Dörnthal (Pfaffroda-Dörnthal)" file="target" height="10" width="10" lat="50.7344689" long="13.3337489" fixed_size="true" url="/pivovary_databaze.php?id=27&tab=pivovary_ostatni&pivovar=Braun Mühle Dörnthal" target="_blank"></movie>
<movie title="Brauhaus Pirna zum Gießer" file="target" height="10" width="10" lat="50.9799250" long="13.9429589" fixed_size="true" url="/pivovary_databaze.php?id=28&tab=pivovary_ostatni&pivovar=Brauhaus Pirna zum Gießer" target="_blank"></movie>
<movie title="Sternquell-Brauerei (Plauen)" file="circle" color="d56e00" color_hover="ffa200" height="10" width="10" lat="50.4985511" long="12.1255367" fixed_size="true" url="/pivovary_databaze.php?id=29&tab=pivovary_ostatni&pivovar=Sternquell-Brauerei" target="_blank"></movie>
<movie title="Weniger Bräu (Porschdorf)" file="target" height="10" width="10" lat="50.9413261" long="14.1265300" fixed_size="true" url="/pivovary_databaze.php?id=30&tab=pivovary_ostatni&pivovar=Weniger Bräu" target="_blank"></movie>
<movie title="Radeberger Exportbierbrauerei" file="circle" color="d56e00" color_hover="ffa200" height="10" width="10" lat="51.1540069" long="13.9652319" fixed_size="true" url="/pivovary_databaze.php?id=31&tab=pivovary_ostatni&pivovar=Radeberger Exportbierbrauerei" target="_blank"></movie>
<movie title="Brauerei Rechenberg (Rechenberg-Bienenmühle)" file="circle" color="d56e00" color_hover="ffa200" height="10" width="10" lat="50.7364550" long="13.5563350" fixed_size="true" url="/pivovary_databaze.php?id=32&tab=pivovary_ostatni&pivovar=Brauerei Rechenberg" target="_blank"></movie>
<movie title="Privatbrauerei Christian Fiedler (Scheibenberg)" file="circle" color="d56e00" color_hover="ffa200" height="10" width="10" lat="50.5368561" long="12.8983192" fixed_size="true" url="/pivovary_databaze.php?id=33&tab=pivovary_ostatni&pivovar=Privatbrauerei Christian Fiedler" target="_blank"></movie>
<movie title="Wernesgrüner Brauerei (Steinberg-Wernesgrün)" file="circle" color="d56e00" color_hover="ffa200" height="10" width="10" lat="50.5337531" long="12.4723147" fixed_size="true" url="/pivovary_databaze.php?id=34&tab=pivovary_ostatni&pivovar=Wernesgrüner Brauerei" target="_blank"></movie>
<movie title="Blechschmidt Privatbrauerei (Treuen)" file="target" height="10" width="10" lat="50.5405861" long="12.3142789" fixed_size="true" url="/pivovary_databaze.php?id=35&tab=pivovary_ostatni&pivovar=Blechschmidt Privatbrauerei" target="_blank"></movie>
<movie title="Weichauer Hof (Weißenburg-Weicha)" file="target" height="10" width="10" lat="51.2002819" long="14.6363000" fixed_size="true" url="/pivovary_databaze.php?id=37&tab=pivovary_ostatni&pivovar=Weichauer Hof" target="_blank"></movie>
<movie title="Brauerei und Gasthof Zwönitz" file="target" height="10" width="10" lat="50.6279719" long="12.8150578" fixed_size="true" url="/pivovary_databaze.php?id=39&tab=pivovary_ostatni&pivovar=Brauerei und Gasthof Zwönitz" target="_blank"></movie>
<movie title="Brauerei Eismann (Altenstadt an der Waldnaab)" file="target" height="10" width="10" lat="49.7245758" long="12.1568869" fixed_size="true" url="/pivovary_databaze.php?id=40&tab=pivovary_ostatni&pivovar=Brauerei Eismann" target="_blank"></movie>
<movie title="Brauerei Mühlbauer (Arnschwang)" file="target" height="10" width="10" lat="49.2744550" long="12.8174400" fixed_size="true" url="/pivovary_databaze.php?id=41&tab=pivovary_ostatni&pivovar=Brauerei Mühlbauer" target="_blank"></movie>
<movie title="Lindner-Bräu (Bad Kötzting)" file="target" height="10" width="10" lat="49.1710000" long="12.8564931" fixed_size="true" url="/pivovary_databaze.php?id=42&tab=pivovary_ostatni&pivovar=Lindner-Bräu" target="_blank"></movie>
<movie title="Gasthof zur Post (Bad Kötzting)" file="target" height="10" width="10" lat="49.1746200" long="12.8560211" fixed_size="true" url="/pivovary_databaze.php?id=43&tab=pivovary_ostatni&pivovar=Gasthof zur Post" target="_blank"></movie>
<movie title="Gottsmannsgrüner Brauerei  (Berg)" file="target" height="10" width="10" lat="50.3851272" long="11.8006250" fixed_size="true" url="/pivovary_databaze.php?id=45&tab=pivovary_ostatni&pivovar=Gottsmannsgrüner Brauerei " target="_blank"></movie>
<movie title="Brauerei-Gasthof-Hotel Eck (Böbrach)" file="target" height="10" width="10" lat="49.0516661" long="13.0308150" fixed_size="true" url="/pivovary_databaze.php?id=46&tab=pivovary_ostatni&pivovar=Brauerei-Gasthof-Hotel Eck" target="_blank"></movie>
<movie title="Aktiv-und Wanderhotel Adam-Bräu (Bodenmais)" file="target" height="10" width="10" lat="49.0695361" long="13.1030628" fixed_size="true" url="/pivovary_databaze.php?id=47&tab=pivovary_ostatni&pivovar=Aktiv-und Wanderhotel Adam-Bräu" target="_blank"></movie>
<movie title="Drachselsrieder Schlossbräu" file="target" height="10" width="10" lat="49.1056800" long="13.0134128" fixed_size="true" url="/pivovary_databaze.php?id=48&tab=pivovary_ostatni&pivovar=Drachselsrieder Schlossbräu" target="_blank"></movie>
<movie title="Brauerei Falter (Drachselsried)" file="circle" color="d56e00" color_hover="ffa200" height="10" width="10" lat="49.1063400" long="13.0137778" fixed_size="true" url="/pivovary_databaze.php?id=49&tab=pivovary_ostatni&pivovar=Brauerei Falter" target="_blank"></movie>
<movie title="Kommunbrauerei Eslarn" file="target" height="10" width="10" lat="49.5782328" long="12.5201869" fixed_size="true" url="/pivovary_databaze.php?id=51&tab=pivovary_ostatni&pivovar=Kommunbrauerei Eslarn" target="_blank"></movie>
<movie title="Kommunbrauerei Markt Falkenberg" file="target" height="10" width="10" lat="49.8596239" long="12.2249622" fixed_size="true" url="/pivovary_databaze.php?id=52&tab=pivovary_ostatni&pivovar=Kommunbrauerei Markt Falkenberg" target="_blank"></movie>
<movie title="Schwoazhansl Zoigl (Falkenberg)" file="target" height="10" width="10" lat="49.8588200" long="12.2262172" fixed_size="true" url="/pivovary_databaze.php?id=54&tab=pivovary_ostatni&pivovar=Schwoazhansl Zoigl" target="_blank"></movie>
<movie title="Wolfadl-Zoigl (Falkenberg)" file="target" height="10" width="10" lat="49.8596508" long="12.2284808" fixed_size="true" url="/pivovary_databaze.php?id=55&tab=pivovary_ostatni&pivovar=Wolfadl-Zoigl" target="_blank"></movie>
<movie title="Lang-Bräu (Freyung)" file="circle" color="d56e00" color_hover="ffa200" height="10" width="10" lat="48.8088278" long="13.5487603" fixed_size="true" url="/pivovary_databaze.php?id=56&tab=pivovary_ostatni&pivovar=Lang-Bräu" target="_blank"></movie>
<movie title="Schloßbrauerei Friedenfels" file="circle" color="d56e00" color_hover="ffa200" height="10" width="10" lat="49.8835750" long="12.1045950" fixed_size="true" url="/pivovary_databaze.php?id=57&tab=pivovary_ostatni&pivovar=Schloßbrauerei Friedenfels" target="_blank"></movie>
<movie title="Schloßbrauerei Fuchsberg" file="circle" color="d56e00" color_hover="ffa200" height="10" width="10" lat="49.4953089" long="12.3911189" fixed_size="true" url="/pivovary_databaze.php?id=58&tab=pivovary_ostatni&pivovar=Schloßbrauerei Fuchsberg" target="_blank"></movie>
<movie title="Dimpfl Bräu Strauß KG (Furth im Wald)" file="target" height="10" width="10" lat="49.3054128" long="12.8450128" fixed_size="true" url="/pivovary_databaze.php?id=59&tab=pivovary_ostatni&pivovar=Dimpfl Bräu Strauß KG" target="_blank"></movie>
<movie title="Bucher Bräu (Grafenau)" file="target" height="10" width="10" lat="48.8544019" long="13.3929131" fixed_size="true" url="/pivovary_databaze.php?id=61&tab=pivovary_ostatni&pivovar=Bucher Bräu" target="_blank"></movie>
<movie title="Apostelbräu (Hauzenberg)" file="target" height="10" width="10" lat="48.6390492" long="13.6345481" fixed_size="true" url="/pivovary_databaze.php?id=62&tab=pivovary_ostatni&pivovar=Apostelbräu" target="_blank"></movie>
<movie title="Privatbrauerei Scherdel Hof" file="circle" color="d56e00" color_hover="ffa200" height="10" width="10" lat="50.3231208" long="11.9115397" fixed_size="true" url="/pivovary_databaze.php?id=64&tab=pivovary_ostatni&pivovar=Privatbrauerei Scherdel Hof" target="_blank"></movie>
<movie title="Familienbrauerei Georg Meinel (Hof)" file="circle" color="d56e00" color_hover="ffa200" height="10" width="10" lat="50.3263539" long="11.9171189" fixed_size="true" url="/pivovary_databaze.php?id=65&tab=pivovary_ostatni&pivovar=Familienbrauerei Georg Meinel" target="_blank"></movie>
<movie title="Hutthurmer Bayerwald-Brauerei (Hutthurm)" file="circle" color="d56e00" color_hover="ffa200" height="10" width="10" lat="48.6722311" long="13.4717922" fixed_size="true" url="/pivovary_databaze.php?id=66&tab=pivovary_ostatni&pivovar=Hutthurmer Bayerwald-Brauerei" target="_blank"></movie>
<movie title="Brauerei Hintereder (Cham-Chammünster)" file="target" height="10" width="10" lat="49.2109389" long="12.6942939" fixed_size="true" url="/pivovary_databaze.php?id=67&tab=pivovary_ostatni&pivovar=Brauerei Hintereder" target="_blank"></movie>
<movie title="Privatbrauerei Lang Jandelsbrunn (Jandelsbrunn)" file="circle" color="d56e00" color_hover="ffa200" height="10" width="10" lat="48.7305350" long="13.6900158" fixed_size="true" url="/pivovary_databaze.php?id=69&tab=pivovary_ostatni&pivovar=Privatbrauerei Lang Jandelsbrunn" target="_blank"></movie>
<movie title="Klett-Bräu (Konzell)" file="target" height="10" width="10" lat="49.0721439" long="12.7129142" fixed_size="true" url="/pivovary_databaze.php?id=71&tab=pivovary_ostatni&pivovar=Klett-Bräu" target="_blank"></movie>
<movie title="Späth-Bräu (Lohberg)" file="circle" color="d56e00" color_hover="ffa200" height="10" width="10" lat="49.1745000" long="13.1063250" fixed_size="true" url="/pivovary_databaze.php?id=72&tab=pivovary_ostatni&pivovar=Späth-Bräu" target="_blank"></movie>
<movie title="Hofmark Brauerei KG (Loifling)" file="target" height="10" width="10" lat="49.1676050" long="12.6415569" fixed_size="true" url="/pivovary_databaze.php?id=73&tab=pivovary_ostatni&pivovar=Hofmark Brauerei KG" target="_blank"></movie>
<movie title="Brauerei Nothhaft (Marktredwitz)" file="circle" color="d56e00" color_hover="ffa200" height="10" width="10" lat="49.9992019" long="12.0864842" fixed_size="true" url="/pivovary_databaze.php?id=74&tab=pivovary_ostatni&pivovar=Brauerei Nothhaft" target="_blank"></movie>
<movie title="Privatbrauerei Hösl (Mitterteich)" file="circle" color="d56e00" color_hover="ffa200" height="10" width="10" lat="49.9501222" long="12.2422458" fixed_size="true" url="/pivovary_databaze.php?id=76&tab=pivovary_ostatni&pivovar=Privatbrauerei Hösl" target="_blank"></movie>
<movie title="Kommunbrauerei Mitterteich (Mitterteich)" file="circle" color="d56e00" color_hover="ffa200" height="10" width="10" lat="49.9508300" long="12.2425839" fixed_size="true" url="/pivovary_databaze.php?id=77&tab=pivovary_ostatni&pivovar=Kommunbrauerei Mitterteich" target="_blank"></movie>
<movie title="Private Landbrauerei Scheuerer (Moosbach)" file="target" height="10" width="10" lat="49.5896411" long="12.4098303" fixed_size="true" url="/pivovary_databaze.php?id=80&tab=pivovary_ostatni&pivovar=Private Landbrauerei Scheuerer" target="_blank"></movie>
<movie title="Frankenwälder Brauhaus (Naila)" file="circle" color="d56e00" color_hover="ffa200" height="10" width="10" lat="50.3273950" long="11.7116189" fixed_size="true" url="/pivovary_databaze.php?id=82&tab=pivovary_ostatni&pivovar=Frankenwälder Brauhaus" target="_blank"></movie>
<movie title="Weißes Brauhaus Mehringer (Neunburg vorm Wald)" file="target" height="10" width="10" lat="49.3478200" long="12.3879028" fixed_size="true" url="/pivovary_databaze.php?id=83&tab=pivovary_ostatni&pivovar=Weißes Brauhaus Mehringer" target="_blank"></movie>
<movie title="Landhotel Gut Riedelsbach (Neureichenau)" file="target" height="10" width="10" lat="48.7502189" long="13.7876489" fixed_size="true" url="/pivovary_databaze.php?id=84&tab=pivovary_ostatni&pivovar=Landhotel Gut Riedelsbach" target="_blank"></movie>
<movie title="Schloßbrauerei Stelzer (Oberkotzau)" file="target" height="10" width="10" lat="50.2438431" long="11.9354219" fixed_size="true" url="/pivovary_databaze.php?id=86&tab=pivovary_ostatni&pivovar=Schloßbrauerei Stelzer" target="_blank"></movie>
<movie title="Riedl Brauerei Gaststätte (Plößberg)" file="target" height="10" width="10" lat="49.7834811" long="12.3093439" fixed_size="true" url="/pivovary_databaze.php?id=88&tab=pivovary_ostatni&pivovar=Riedl Brauerei Gaststätte" target="_blank"></movie>
<movie title="Brauerei Drexler (Pösing)" file="target" height="10" width="10" lat="49.2289911" long="12.5499492" fixed_size="true" url="/pivovary_databaze.php?id=89&tab=pivovary_ostatni&pivovar=Brauerei Drexler" target="_blank"></movie>
<movie title="Privatbrauerei J.B. Falter (Regen)" file="target" height="10" width="10" lat="48.9688219" long="13.1251650" fixed_size="true" url="/pivovary_databaze.php?id=90&tab=pivovary_ostatni&pivovar=Privatbrauerei J.B. Falter" target="_blank"></movie>
<movie title="Genossenschaftsbrauerei Rötz" file="target" height="10" width="10" lat="49.3420408" long="12.5258953" fixed_size="true" url="/pivovary_databaze.php?id=93&tab=pivovary_ostatni&pivovar=Genossenschaftsbrauerei Rötz" target="_blank"></movie>
<movie title="Schloßbrauerei Brandl (Runding)" file="target" height="10" width="10" lat="49.2146819" long="12.7632381" fixed_size="true" url="/pivovary_databaze.php?id=95&tab=pivovary_ostatni&pivovar=Schloßbrauerei Brandl" target="_blank"></movie>
<movie title="Gasthausbrauerei Ploß (Selb)" file="target" height="10" width="10" lat="50.1705761" long="12.1309450" fixed_size="true" url="/pivovary_databaze.php?id=96&tab=pivovary_ostatni&pivovar=Gasthausbrauerei Ploß" target="_blank"></movie>
<movie title="Rhanerbräu (Schönthal)" file="circle" color="d56e00" color_hover="ffa200" height="10" width="10" lat="49.3361550" long="12.6173692" fixed_size="true" url="/pivovary_databaze.php?id=99&tab=pivovary_ostatni&pivovar=Rhanerbräu" target="_blank"></movie>
<movie title="Brauerei Josef Stangl (Spiegelau-Klingenbrunn)" file="target" height="10" width="10" lat="48.9208361" long="13.3213950" fixed_size="true" url="/pivovary_databaze.php?id=100&tab=pivovary_ostatni&pivovar=Brauerei Josef Stangl" target="_blank"></movie>
<movie title="Gutsbräu Straßkirchen" file="target" height="10" width="10" lat="48.6355039" long="13.4791950" fixed_size="true" url="/pivovary_databaze.php?id=102&tab=pivovary_ostatni&pivovar=Gutsbräu Straßkirchen" target="_blank"></movie>
<movie title="Ettl-Bräu (Teisnach)" file="target" height="10" width="10" lat="49.0381631" long="12.9951311" fixed_size="true" url="/pivovary_databaze.php?id=103&tab=pivovary_ostatni&pivovar=Ettl-Bräu" target="_blank"></movie>
<movie title="Gambrinus Brauerei (Weiden)" file="target" height="10" width="10" lat="49.6786539" long="12.1532181" fixed_size="true" url="/pivovary_databaze.php?id=111&tab=pivovary_ostatni&pivovar=Gambrinus Brauerei" target="_blank"></movie>
<movie title="Gasthausbrauerei BräuWirt (Weiden)" file="target" height="10" width="10" lat="49.6759461" long="12.1639469" fixed_size="true" url="/pivovary_databaze.php?id=113&tab=pivovary_ostatni&pivovar=Gasthausbrauerei BräuWirt" target="_blank"></movie>
<movie title="Brauerei Hösl Rothenstadt (Weiden-Rothenstadt)" file="target" height="10" width="10" lat="49.6298800" long="12.1424031" fixed_size="true" url="/pivovary_databaze.php?id=114&tab=pivovary_ostatni&pivovar=Brauerei Hösl Rothenstadt" target="_blank"></movie>
<movie title="Brauerei Michael (Weißenstadt)" file="target" height="10" width="10" lat="50.1052081" long="11.8897100" fixed_size="true" url="/pivovary_databaze.php?id=115&tab=pivovary_ostatni&pivovar=Brauerei Michael" target="_blank"></movie>
<movie title="Zoiglbrauerei Wolframstub'n (Windischeschenbach)" file="target" height="10" width="10" lat="49.8016961" long="12.1552989" fixed_size="true" url="/pivovary_databaze.php?id=116&tab=pivovary_ostatni&pivovar=Zoiglbrauerei Wolframstub'n" target="_blank"></movie>
<movie title="Brauerei Würth (Windischeschenbach)" file="target" height="10" width="10" lat="49.7979292" long="12.1594408" fixed_size="true" url="/pivovary_databaze.php?id=117&tab=pivovary_ostatni&pivovar=Brauerei Würth" target="_blank"></movie>
<movie title="Kommunbrauhaus (Windischeschenbach)" file="circle" color="d56e00" color_hover="ffa200" height="10" width="10" lat="49.8019042" long="12.1553419" fixed_size="true" url="/pivovary_databaze.php?id=118&tab=pivovary_ostatni&pivovar=Kommunbrauhaus" target="_blank"></movie>
<movie title="Lang-Bräu (Wunsiedel-Schönbrunn)" file="circle" color="d56e00" color_hover="ffa200" height="10" width="10" lat="50.0272761" long="11.9697981" fixed_size="true" url="/pivovary_databaze.php?id=120&tab=pivovary_ostatni&pivovar=Lang-Bräu" target="_blank"></movie>
<movie title="Hönicka-Bräu Wunsiedel (Wunsiedel)" file="target" height="10" width="10" lat="50.0415969" long="11.9961478" fixed_size="true" url="/pivovary_databaze.php?id=121&tab=pivovary_ostatni&pivovar=Hönicka-Bräu Wunsiedel" target="_blank"></movie>
<movie title="1. Dampfbierbrauerei Zwiesel GmbH & Co.KG (Zwiesel)" file="circle" color="d56e00" color_hover="ffa200" height="10" width="10" lat="49.0095858" long="13.2233978" fixed_size="true" url="/pivovary_databaze.php?id=122&tab=pivovary_ostatni&pivovar=1. Dampfbierbrauerei Zwiesel GmbH & Co.KG" target="_blank"></movie>
<movie title="Browar Miejski (Bielsko-Biała)" file="target" height="10" width="10" lat="49.8210400" long="19.0414519" fixed_size="true" url="/pivovary_databaze.php?id=123&tab=pivovary_ostatni&pivovar=Browar Miejski" target="_blank"></movie>
<movie title="Grupa Żywiec - Browar Cieszyn" file="circle" color="d56e00" color_hover="ffa200" height="10" width="10" lat="49.7538231" long="18.6256242" fixed_size="true" url="/pivovary_databaze.php?id=124&tab=pivovary_ostatni&pivovar=Grupa Żywiec - Browar Cieszyn" target="_blank"></movie>
<movie title="Zakłady Piwowarskie Głubczyce - Browar w Głubczycach" file="circle" color="d56e00" color_hover="ffa200" height="10" width="10" lat="50.1957900" long="17.8281708" fixed_size="true" url="/pivovary_databaze.php?id=125&tab=pivovary_ostatni&pivovar=Zakłady Piwowarskie Głubczyce - Browar w Głubczycach" target="_blank"></movie>
<movie title="Browar Lwówek (Lwówek Śląski)" file="circle" color="d56e00" color_hover="ffa200" height="10" width="10" lat="51.1102311" long="15.5842781" fixed_size="true" url="/pivovary_databaze.php?id=126&tab=pivovary_ostatni&pivovar=Browar Lwówek" target="_blank"></movie>
<movie title="Browar Zamkowy (Racibórz)" file="circle" color="d56e00" color_hover="ffa200" height="10" width="10" lat="50.0961931" long="18.2209750" fixed_size="true" url="/pivovary_databaze.php?id=127&tab=pivovary_ostatni&pivovar=Browar Zamkowy" target="_blank"></movie>
<movie title="Browary Żywiec S.A." file="circle" color="d56e00" color_hover="ffa200" height="10" width="10" lat="49.6626139" long="19.1742111" fixed_size="true" url="/pivovary_databaze.php?id=128&tab=pivovary_ostatni&pivovar=Browary Żywiec S.A." target="_blank"></movie>
<movie title="Popper (Bytča)" file="circle" color="d56e00" color_hover="ffa200" height="10" width="10" lat="49.2213531" long="18.5606289" fixed_size="true" url="/pivovary_databaze.php?id=129&tab=pivovary_ostatni&pivovar=Popper" target="_blank"></movie>
<movie title="Sandorf (Prievaly)" file="target" height="10" width="10" lat="48.5571111" long="17.3495261" fixed_size="true" url="/pivovary_databaze.php?id=130&tab=pivovary_ostatni&pivovar=Sandorf" target="_blank"></movie>
<movie title="Stiftsbrauerei Schlägl (Aigen im Mühlkreis)" file="circle" color="d56e00" color_hover="ffa200" height="10" width="10" lat="48.6368508" long="13.9674642" fixed_size="true" url="/pivovary_databaze.php?id=131&tab=pivovary_ostatni&pivovar=Stiftsbrauerei Schlägl" target="_blank"></movie>
<movie title="Braucommune in Freistadt" file="circle" color="d56e00" color_hover="ffa200" height="10" width="10" lat="48.5102500" long="14.5001081" fixed_size="true" url="/pivovary_databaze.php?id=132&tab=pivovary_ostatni&pivovar=Braucommune in Freistadt" target="_blank"></movie>
<movie title="Hausbrauerei Günther Dangl & Co (Japons)" file="target" height="10" width="10" lat="48.8153142" long="15.5675197" fixed_size="true" url="/pivovary_databaze.php?id=133&tab=pivovary_ostatni&pivovar=Hausbrauerei Günther Dangl & Co" target="_blank"></movie>
<movie title="Schloßbrauerei Weinberg (Kefermarkt)" file="target" height="10" width="10" lat="48.4487319" long="14.5397831" fixed_size="true" url="/pivovary_databaze.php?id=134&tab=pivovary_ostatni&pivovar=Schloßbrauerei Weinberg" target="_blank"></movie>
<movie title="Eder-Bräu Bierbuschenschank (Kefermarkt)" file="target" height="10" width="10" lat="48.4001042" long="14.5654250" fixed_size="true" url="/pivovary_databaze.php?id=135&tab=pivovary_ostatni&pivovar=Eder-Bräu Bierbuschenschank" target="_blank"></movie>
<movie title="Hubertusbräu (Laa an der Thaya)" file="circle" color="d56e00" color_hover="ffa200" height="10" width="10" lat="48.7205561" long="16.3909150" fixed_size="true" url="/pivovary_databaze.php?id=136&tab=pivovary_ostatni&pivovar=Hubertusbräu" target="_blank"></movie>
<movie title="Stadtbräu Josef (Linz)" file="target" height="10" width="10" lat="48.3000958" long="14.2914750" fixed_size="true" url="/pivovary_databaze.php?id=137&tab=pivovary_ostatni&pivovar=Stadtbräu Josef" target="_blank"></movie>
<movie title="Privatbrauerei Thomas Breuss (Neufelden)" file="target" height="10" width="10" lat="48.4845711" long="13.9987711" fixed_size="true" url="/pivovary_databaze.php?id=138&tab=pivovary_ostatni&pivovar=Privatbrauerei Thomas Breuss" target="_blank"></movie>
<movie title="Thor-Bräu Laska (Ottensheim)" file="target" height="10" width="10" lat="48.3325319" long="14.1750881" fixed_size="true" url="/pivovary_databaze.php?id=139&tab=pivovary_ostatni&pivovar=Thor-Bräu Laska" target="_blank"></movie>
<movie title="Bratl Bräu (Sankt Georgen am Walde)" file="target" height="10" width="10" lat="48.3592539" long="14.8987528" fixed_size="true" url="/pivovary_databaze.php?id=140&tab=pivovary_ostatni&pivovar=Bratl Bräu" target="_blank"></movie>
<movie title="Brauerei Hofstetten (Sankt Martin im Mühlkreis)" file="target" height="10" width="10" lat="48.4293861" long="14.0366858" fixed_size="true" url="/pivovary_databaze.php?id=141&tab=pivovary_ostatni&pivovar=Brauerei Hofstetten" target="_blank"></movie>
<movie title="Brauerei Zipf" file="circle" color="d56e00" color_hover="ffa200" height="10" width="10" lat="48.6722219" long="16.1833328" fixed_size="true" url="/pivovary_databaze.php?id=142&tab=pivovary_ostatni&pivovar=Brauerei Zipf" target="_blank"></movie>
<movie title="Brauerei Bachner (Sankt Stefan am Walde)" file="target" height="10" width="10" lat="48.5559750" long="14.1012311" fixed_size="true" url="/pivovary_databaze.php?id=143&tab=pivovary_ostatni&pivovar=Brauerei Bachner" target="_blank"></movie>
<movie title="Privatbrauerei Maria Pichler (Schönbach  )" file="target" height="10" width="10" lat="48.4533708" long="15.0389103" fixed_size="true" url="/pivovary_databaze.php?id=144&tab=pivovary_ostatni&pivovar=Privatbrauerei Maria Pichler" target="_blank"></movie>
<movie title="Bierbrauerei Schrems (Schrems)" file="circle" color="d56e00" color_hover="ffa200" height="10" width="10" lat="48.7895489" long="15.0684572" fixed_size="true" url="/pivovary_databaze.php?id=145&tab=pivovary_ostatni&pivovar=Bierbrauerei Schrems" target="_blank"></movie>
<movie title="Brauerei Vitzthum (Uttendorf)" file="circle" color="d56e00" color_hover="ffa200" height="10" width="10" lat="48.4591200" long="14.1237400" fixed_size="true" url="/pivovary_databaze.php?id=146&tab=pivovary_ostatni&pivovar=Brauerei Vitzthum" target="_blank"></movie>
<movie title="Brauerei Brauhotel Weitra" file="target" height="10" width="10" lat="48.7016250" long="14.8942208" fixed_size="true" url="/pivovary_databaze.php?id=147&tab=pivovary_ostatni&pivovar=Brauerei Brauhotel Weitra" target="_blank"></movie>
<movie title="Brauerei Weitra Herman Pöpperl" file="target" height="10" width="10" lat="48.7013000" long="14.8963239" fixed_size="true" url="/pivovary_databaze.php?id=148&tab=pivovary_ostatni&pivovar=Brauerei Weitra Herman Pöpperl" target="_blank"></movie>
<movie title="Dörnbacher Floriani-Bräu (Wilhering)" file="target" height="10" width="10" lat="48.2801089" long="14.2009450" fixed_size="true" url="/pivovary_databaze.php?id=149&tab=pivovary_ostatni&pivovar=Dörnbacher Floriani-Bräu" target="_blank"></movie>
<movie title="Brauerei Zwettl" file="circle" color="d56e00" color_hover="ffa200" height="10" width="10" lat="48.6010761" long="15.1693303" fixed_size="true" url="/pivovary_databaze.php?id=150&tab=pivovary_ostatni&pivovar=Brauerei Zwettl" target="_blank"></movie>
<movie title="Adlerbräu (Ernstbrunn)" file="target" height="10" width="10" lat="48.5267800" long="16.3586428" fixed_size="true" url="/pivovary_databaze.php?id=151&tab=pivovary_ostatni&pivovar=Adlerbräu" target="_blank"></movie>
<movie title="Bio-Hofbrauerei Fürst (Neumarkt im Mühlkreis)" file="target" height="10" width="10" lat="48.4132800" long="14.4659692" fixed_size="true" url="/pivovary_databaze.php?id=153&tab=pivovary_ostatni&pivovar=Bio-Hofbrauerei Fürst" target="_blank"></movie>
<movie title="Trappistenbrauerei, Stift Engelszell (Engelhartszell)" file="target" height="10" width="10" lat="48.5002561" long="13.7349061" fixed_size="true" url="/pivovary_databaze.php?id=154&tab=pivovary_ostatni&pivovar=Trappistenbrauerei, Stift Engelszell" target="_blank"></movie>
<movie title="Bratislavský Meštiansky Pivovar" file="target" height="10" width="10" lat="48.1470300" long="17.1082000" fixed_size="true" url="/pivovary_databaze.php?id=155&tab=pivovary_ostatni&pivovar=Bratislavský Meštiansky Pivovar" target="_blank"></movie>
<movie title="Meštianský pivovar na Dunajskej ulici (Bratislava)" file="target" height="10" width="10" lat="48.1454200" long="17.1180300" fixed_size="true" url="/pivovary_databaze.php?id=156&tab=pivovary_ostatni&pivovar=Meštianský pivovar na Dunajskej ulici" target="_blank"></movie>
<movie title="Minipivovar Richtár Jakub (Bratislava)" file="target" height="10" width="10" lat="48.1501303" long="17.1228000" fixed_size="true" url="/pivovary_databaze.php?id=157&tab=pivovary_ostatni&pivovar=Minipivovar Richtár Jakub" target="_blank"></movie>
<movie title="Patrónsky pivovar (Bratislava)" file="target" height="10" width="10" lat="48.1657500" long="17.0811600" fixed_size="true" url="/pivovary_databaze.php?id=158&tab=pivovary_ostatni&pivovar=Patrónsky pivovar" target="_blank"></movie>
<movie title="Starosloviensky pivovar (Bratislava)" file="target" height="10" width="10" lat="48.1489200" long="17.1106800" fixed_size="true" url="/pivovary_databaze.php?id=159&tab=pivovary_ostatni&pivovar=Starosloviensky pivovar" target="_blank"></movie>
<movie title="Zámocký pivovar (Bratislava)" file="target" height="10" width="10" lat="48.1446700" long="17.1021500" fixed_size="true" url="/pivovary_databaze.php?id=160&tab=pivovary_ostatni&pivovar=Zámocký pivovar" target="_blank"></movie>
<movie title="Turčiansky pivovarnícky dom (Martin)" file="target" height="10" width="10" lat="49.0809400" long="18.9025800" fixed_size="true" url="/pivovary_databaze.php?id=161&tab=pivovary_ostatni&pivovar=Turčiansky pivovarnícky dom" target="_blank"></movie>
<movie title="Minipivovar Bozen (Pezinok)" file="target" height="10" width="10" lat="48.2918700" long="17.2774200" fixed_size="true" url="/pivovary_databaze.php?id=162&tab=pivovary_ostatni&pivovar=Minipivovar Bozen" target="_blank"></movie>
<movie title="Reštauračný pivovar Sessler (Trnava)" file="target" height="10" width="10" lat="48.3890800" long="17.5768200" fixed_size="true" url="/pivovary_databaze.php?id=163&tab=pivovary_ostatni&pivovar=Reštauračný pivovar Sessler" target="_blank"></movie>
<movie title="Biermanufaktur Korneuburg" file="target" height="10" width="10" lat="48.3429011" long="16.3272711" fixed_size="true" url="/pivovary_databaze.php?id=164&tab=pivovary_ostatni&pivovar=Biermanufaktur Korneuburg" target="_blank"></movie>
<movie title="Brauerei Schwechat" file="circle" color="d56e00" color_hover="ffa200" height="10" width="10" lat="48.1445419" long="16.4688711" fixed_size="true" url="/pivovary_databaze.php?id=166&tab=pivovary_ostatni&pivovar=Brauerei Schwechat" target="_blank"></movie>
<movie title="Medl-Bräu 1. Penzinger Gasthofbrauerei (Wien)" file="target" height="10" width="10" lat="48.1956158" long="16.2803008" fixed_size="true" url="/pivovary_databaze.php?id=167&tab=pivovary_ostatni&pivovar=Medl-Bräu 1. Penzinger Gasthofbrauerei" target="_blank"></movie>
<movie title="Schwarzer Rabe Black Raven (Wien)" file="target" height="10" width="10" lat="48.2134350" long="16.3137750" fixed_size="true" url="/pivovary_databaze.php?id=168&tab=pivovary_ostatni&pivovar=Schwarzer Rabe Black Raven" target="_blank"></movie>
<movie title="Ottakringer Brauerei AG (Wien)" file="circle" color="d56e00" color_hover="ffa200" height="10" width="10" lat="48.2124919" long="16.3244611" fixed_size="true" url="/pivovary_databaze.php?id=169&tab=pivovary_ostatni&pivovar=Ottakringer Brauerei AG" target="_blank"></movie>
<movie title="The Highlander (Wien)" file="target" height="10" width="10" lat="48.2269461" long="16.3533428" fixed_size="true" url="/pivovary_databaze.php?id=170&tab=pivovary_ostatni&pivovar=The Highlander" target="_blank"></movie>
<movie title="Fischerbräu 1. Wiener Gasthof-Brauerei (Wien)" file="target" height="10" width="10" lat="48.2347069" long="16.3506819" fixed_size="true" url="/pivovary_databaze.php?id=171&tab=pivovary_ostatni&pivovar=Fischerbräu 1. Wiener Gasthof-Brauerei" target="_blank"></movie>
<movie title="Kadlez Bräu (Wien)" file="target" height="10" width="10" lat="48.2537839" long="16.3937472" fixed_size="true" url="/pivovary_databaze.php?id=172&tab=pivovary_ostatni&pivovar=Kadlez Bräu" target="_blank"></movie>
<movie title="Siebensternbräu (Wien)" file="target" height="10" width="10" lat="48.2022669" long="16.3535569" fixed_size="true" url="/pivovary_databaze.php?id=173&tab=pivovary_ostatni&pivovar=Siebensternbräu" target="_blank"></movie>
<movie title="Wieden-Bräu Stark OEG (Wien)" file="target" height="10" width="10" lat="48.1949300" long="16.3661531" fixed_size="true" url="/pivovary_databaze.php?id=174&tab=pivovary_ostatni&pivovar=Wieden-Bräu Stark OEG" target="_blank"></movie>
<movie title="Salm Bräu Ges.m.b.H. (Wien)" file="target" height="10" width="10" lat="48.1966031" long="16.3810661" fixed_size="true" url="/pivovary_databaze.php?id=175&tab=pivovary_ostatni&pivovar=Salm Bräu Ges.m.b.H." target="_blank"></movie>
<movie title="1516 Brewing Company (Wien)" file="target" height="10" width="10" lat="48.2032892" long="16.3731800" fixed_size="true" url="/pivovary_databaze.php?id=176&tab=pivovary_ostatni&pivovar=1516 Brewing Company" target="_blank"></movie>
<movie title="Stadtbrauerei Schwarzenberg (Wien)" file="target" height="10" width="10" lat="48.2034972" long="16.3740281" fixed_size="true" url="/pivovary_databaze.php?id=177&tab=pivovary_ostatni&pivovar=Stadtbrauerei Schwarzenberg" target="_blank"></movie>
<movie title="Lichtenthaler Bräu (Wien)" file="target" height="10" width="10" lat="48.2302481" long="16.3565403" fixed_size="true" url="/pivovary_databaze.php?id=178&tab=pivovary_ostatni&pivovar=Lichtenthaler Bräu" target="_blank"></movie>
<movie title="Marchfelder Storchenbräu (Untersiebenbrunn)" file="target" height="10" width="10" lat="48.2551981" long="16.7390869" fixed_size="true" url="/pivovary_databaze.php?id=179&tab=pivovary_ostatni&pivovar=Marchfelder Storchenbräu" target="_blank"></movie>
<movie title="Bauernbräu (Wien)" file="target" height="10" width="10" lat="48.1906381" long="16.3396531" fixed_size="true" url="/pivovary_databaze.php?id=180&tab=pivovary_ostatni&pivovar=Bauernbräu" target="_blank"></movie>
<movie title="Andorfer Weizenbierbrauerei (Passau)" file="target" height="10" width="10" lat="48.5867281" long="13.4528019" fixed_size="true" url="/pivovary_databaze.php?id=181&tab=pivovary_ostatni&pivovar=Andorfer Weizenbierbrauerei" target="_blank"></movie>
<movie title="Brauerei Hacklberg (Passau)" file="circle" color="d56e00" color_hover="ffa200" height="10" width="10" lat="48.5771469" long="13.4438108" fixed_size="true" url="/pivovary_databaze.php?id=182&tab=pivovary_ostatni&pivovar=Brauerei Hacklberg" target="_blank"></movie>
<movie title="Bayerische Löwenbrauerei Stockbauer (Passau)" file="circle" color="d56e00" color_hover="ffa200" height="10" width="10" lat="48.5708711" long="13.4539181" fixed_size="true" url="/pivovary_databaze.php?id=184&tab=pivovary_ostatni&pivovar=Bayerische Löwenbrauerei Stockbauer" target="_blank"></movie>
<movie title="Innstadt Brauerei Bierspezialitäten (Passau)" file="circle" color="d56e00" color_hover="ffa200" height="10" width="10" lat="48.5709711" long="13.4686161" fixed_size="true" url="/pivovary_databaze.php?id=185&tab=pivovary_ostatni&pivovar=Innstadt Brauerei Bierspezialitäten" target="_blank"></movie>
<movie title="Brauerei Reichenbrand (Chemnitz)" file="circle" color="d56e00" color_hover="ffa200" height="10" width="10" lat="50.8145181" long="12.8346281" fixed_size="true" url="/pivovary_databaze.php?id=186&tab=pivovary_ostatni&pivovar=Brauerei Reichenbrand" target="_blank"></movie>
<movie title="Karls Brauhaus-Restaurant (Chemnitz)" file="target" height="10" width="10" lat="50.8357581" long="12.9220892" fixed_size="true" url="/pivovary_databaze.php?id=188&tab=pivovary_ostatni&pivovar=Karls Brauhaus-Restaurant" target="_blank"></movie>
<movie title="Turm-Brauhaus (Chemnitz)" file="target" height="10" width="10" lat="50.8329250" long="12.9205869" fixed_size="true" url="/pivovary_databaze.php?id=189&tab=pivovary_ostatni&pivovar=Turm-Brauhaus" target="_blank"></movie>
<movie title="Einsiedler Brauhaus GmbH (Chemnitz)" file="circle" color="d56e00" color_hover="ffa200" height="10" width="10" lat="50.7649919" long="12.9747250" fixed_size="true" url="/pivovary_databaze.php?id=190&tab=pivovary_ostatni&pivovar=Einsiedler Brauhaus GmbH" target="_blank"></movie>
<movie title="Braustolz Brauerei (Chemnitz)" file="circle" color="d56e00" color_hover="ffa200" height="10" width="10" lat="50.8229089" long="12.8862331" fixed_size="true" url="/pivovary_databaze.php?id=191&tab=pivovary_ostatni&pivovar=Braustolz Brauerei" target="_blank"></movie>
<movie title="1. Zwickauer Gasthausbrauerei (Zwickau)" file="target" height="10" width="10" lat="50.7171811" long="12.4944811" fixed_size="true" url="/pivovary_databaze.php?id=192&tab=pivovary_ostatni&pivovar=1. Zwickauer Gasthausbrauerei" target="_blank"></movie>
<movie title="Mauritius Brauerei Zwickau (Zwickau)" file="circle" color="d56e00" color_hover="ffa200" height="10" width="10" lat="50.7250192" long="12.5004892" fixed_size="true" url="/pivovary_databaze.php?id=193&tab=pivovary_ostatni&pivovar=Mauritius Brauerei Zwickau" target="_blank"></movie>
<movie title="Glückauf-Brauerei (Gersdorf)" file="circle" color="d56e00" color_hover="ffa200" height="10" width="10" lat="50.7618569" long="12.7083061" fixed_size="true" url="/pivovary_databaze.php?id=194&tab=pivovary_ostatni&pivovar=Glückauf-Brauerei" target="_blank"></movie>
<movie title="Żywiecki Browar Rzemieślniczy Krajcar (Żywiec)" file="target" height="10" width="10" lat="49.6892461" long="19.1991658" fixed_size="true" url="/pivovary_databaze.php?id=195&tab=pivovary_ostatni&pivovar=Żywiecki Browar Rzemieślniczy Krajcar" target="_blank"></movie>
<movie title="Minipivovar Vŕšky (Terchová)" file="target" height="10" width="10" lat="49.2550331" long="19.0430831" fixed_size="true" url="/pivovary_databaze.php?id=196&tab=pivovary_ostatni&pivovar=Minipivovar Vŕšky" target="_blank"></movie>
<movie title="Sonnenbräu Lichtenberg" file="target" height="10" width="10" lat="50.3808308" long="11.6755908" fixed_size="true" url="/pivovary_databaze.php?id=197&tab=pivovary_ostatni&pivovar=Sonnenbräu Lichtenberg" target="_blank"></movie>
<movie title="Kommunbrauhaus Neuhaus (Windischeschenbach-Neuhaus)" file="circle" color="d56e00" color_hover="ffa200" height="10" width="10" lat="49.8009658" long="12.1667842" fixed_size="true" url="/pivovary_databaze.php?id=198&tab=pivovary_ostatni&pivovar=Kommunbrauhaus Neuhaus" target="_blank"></movie>
<movie title="Schlossbrauerei Reuth" file="target" height="10" width="10" lat="49.8436981" long="12.1199800" fixed_size="true" url="/pivovary_databaze.php?id=199&tab=pivovary_ostatni&pivovar=Schlossbrauerei Reuth" target="_blank"></movie>
<movie title="Landhaus Arberkristall (Bayerisch Eisenstein)" file="target" height="10" width="10" lat="49.1239950" long="13.1966400" fixed_size="true" url="/pivovary_databaze.php?id=200&tab=pivovary_ostatni&pivovar=Landhaus Arberkristall" target="_blank"></movie>
<movie title="Minipivovar Štramák (Senica)" file="target" height="10" width="10" lat="48.6779800" long="17.3658800" fixed_size="true" url="/pivovary_databaze.php?id=201&tab=pivovary_ostatni&pivovar=Minipivovar Štramák" target="_blank"></movie>
<movie title="Hotel & Browar Słociak (Sławice k. Opola)" file="target" height="10" width="10" lat="50.6985078" long="17.8750650" fixed_size="true" url="/pivovary_databaze.php?id=202&tab=pivovary_ostatni&pivovar=Hotel & Browar Słociak" target="_blank"></movie>
<movie title="Van Pur - Oddział w Zabrzu" file="circle" color="d56e00" color_hover="ffa200" height="10" width="10" lat="50.3013061" long="18.7938950" fixed_size="true" url="/pivovary_databaze.php?id=203&tab=pivovary_ostatni&pivovar=Van Pur - Oddział w Zabrzu" target="_blank"></movie>
<movie title="Kompania Piwowarska - Browar Tychy" file="circle" color="d56e00" color_hover="ffa200" height="10" width="10" lat="50.1320511" long="18.9860269" fixed_size="true" url="/pivovary_databaze.php?id=204&tab=pivovary_ostatni&pivovar=Kompania Piwowarska - Browar Tychy" target="_blank"></movie>
<movie title="Minibrowar Spiż - Katowice" file="target" height="10" width="10" lat="50.2621319" long="19.0113692" fixed_size="true" url="/pivovary_databaze.php?id=206&tab=pivovary_ostatni&pivovar=Minibrowar Spiż - Katowice" target="_blank"></movie>
<movie title="Bierhalle Katowice" file="target" height="10" width="10" lat="50.2726519" long="18.9913272" fixed_size="true" url="/pivovary_databaze.php?id=207&tab=pivovary_ostatni&pivovar=Bierhalle Katowice" target="_blank"></movie>
<movie title="MajEr - mini browar (Gliwice)" file="target" height="10" width="10" lat="50.2958650" long="18.6679819" fixed_size="true" url="/pivovary_databaze.php?id=208&tab=pivovary_ostatni&pivovar=MajEr - mini browar" target="_blank"></movie>
<movie title="Schwertberger Bräu e.U." file="target" height="10" width="10" lat="48.2747217" long="14.5809081" fixed_size="true" url="/pivovary_databaze.php?id=209&tab=pivovary_ostatni&pivovar=Schwertberger Bräu e.U." target="_blank"></movie>
<movie title="Minipivovar Stupavar (Stupava)" file="target" height="10" width="10" lat="48.2728822" long="17.0225208" fixed_size="true" url="/pivovary_databaze.php?id=210&tab=pivovary_ostatni&pivovar=Minipivovar Stupavar" target="_blank"></movie>
<movie title="Reden (Chorzów)" file="target" height="10" width="10" lat="50.2941439" long="18.9528539" fixed_size="true" url="/pivovary_databaze.php?id=211&tab=pivovary_ostatni&pivovar=Reden" target="_blank"></movie>
<movie title="Wrzos (Ustroń)" file="target" height="10" width="10" lat="49.7213650" long="18.8164958" fixed_size="true" url="/pivovary_databaze.php?id=212&tab=pivovary_ostatni&pivovar=Wrzos" target="_blank"></movie>
<movie title="Minipivovar Kastelán (Oravský Podzámok)" file="target" height="10" width="10" lat="49.2623400" long="19.3699200" fixed_size="true" url="/pivovary_databaze.php?id=213&tab=pivovary_ostatni&pivovar=Minipivovar Kastelán" target="_blank"></movie>
<movie title="Browar Rynek (Racibórz)" file="target" height="10" width="10" lat="50.0924900" long="18.2195992" fixed_size="true" url="/pivovary_databaze.php?id=214&tab=pivovary_ostatni&pivovar=Browar Rynek" target="_blank"></movie>
<movie title="Tragarz (Rybnik)" file="target" height="10" width="10" lat="50.0487981" long="18.5873892" fixed_size="true" url="/pivovary_databaze.php?id=215&tab=pivovary_ostatni&pivovar=Tragarz" target="_blank"></movie>
<movie title="Langenrohrer Erlebnis Brauerei" file="target" height="10" width="10" lat="48.3060981" long="16.0093981" fixed_size="true" url="/pivovary_databaze.php?id=216&tab=pivovary_ostatni&pivovar=Langenrohrer Erlebnis Brauerei" target="_blank"></movie>
<movie title="Roter Hiasl (Wien)" file="target" height="10" width="10" lat="48.1943150" long="16.4661458" fixed_size="true" url="/pivovary_databaze.php?id=217&tab=pivovary_ostatni&pivovar=Roter Hiasl" target="_blank"></movie>
<movie title="Brauerei Vielau (Reinsdorf)" file="target" height="10" width="10" lat="50.6843081" long="12.5451308" fixed_size="true" url="/pivovary_databaze.php?id=218&tab=pivovary_ostatni&pivovar=Brauerei Vielau" target="_blank"></movie>
<movie title="Trauner Bier GmbH (Traun)" file="target" height="10" width="10" lat="48.2192969" long="14.2401269" fixed_size="true" url="/pivovary_databaze.php?id=219&tab=pivovary_ostatni&pivovar=Trauner Bier GmbH" target="_blank"></movie>
<movie title="Hackl Bräu (Wien)" file="target" height="10" width="10" lat="48.1893369" long="16.3632350" fixed_size="true" url="/pivovary_databaze.php?id=220&tab=pivovary_ostatni&pivovar=Hackl Bräu" target="_blank"></movie>
<movie title="Zum Schwarzen Adler (Wien)" file="target" height="10" width="10" lat="48.1918972" long="16.3560458" fixed_size="true" url="/pivovary_databaze.php?id=221&tab=pivovary_ostatni&pivovar=Zum Schwarzen Adler" target="_blank"></movie>
<movie title="Browarnia Sobótka Górka" file="target" height="10" width="10" lat="50.8919661" long="16.7040492" fixed_size="true" url="/pivovary_databaze.php?id=222&tab=pivovary_ostatni&pivovar=Browarnia Sobótka Górka" target="_blank"></movie>
<movie title="Browar Dziedzice (Czechowice-Dziedzice)" file="target" height="10" width="10" lat="49.9074031" long="18.9986931" fixed_size="true" url="/pivovary_databaze.php?id=223&tab=pivovary_ostatni&pivovar=Browar Dziedzice" target="_blank"></movie>
<movie title="Múzejný pivovar (Bratislava)" file="target" height="10" width="10" lat="48.1294300" long="17.2044600" fixed_size="true" url="/pivovary_databaze.php?id=224&tab=pivovary_ostatni&pivovar=Múzejný pivovar" target="_blank"></movie>
<movie title="Hausbräu Schaller (Floß)" file="target" height="10" width="10" lat="49.7201611" long="12.2782569" fixed_size="true" url="/pivovary_databaze.php?id=244&tab=pivovary_ostatni&pivovar=Hausbräu Schaller" target="_blank"></movie>
<movie title="Schnellinger (Schwarzenfeld)" file="target" height="10" width="10" lat="49.3789661" long="12.1104631" fixed_size="true" url="/pivovary_databaze.php?id=245&tab=pivovary_ostatni&pivovar=Schnellinger" target="_blank"></movie>
<movie title="Sudhaus Schwarzach" file="target" height="10" width="10" lat="48.9147669" long="12.8108850" fixed_size="true" url="/pivovary_databaze.php?id=246&tab=pivovary_ostatni&pivovar=Sudhaus Schwarzach" target="_blank"></movie>
<movie title="Novomestský pivovar (Bratislava)" file="target" height="10" width="10" lat="48.1606000" long="17.1272700" fixed_size="true" url="/pivovary_databaze.php?id=247&tab=pivovary_ostatni&pivovar=Novomestský pivovar" target="_blank"></movie>
<movie title="Pivovar Lanius (Trenčín)" file="target" height="10" width="10" lat="48.8949097" long="18.0416497" fixed_size="true" url="/pivovary_databaze.php?id=248&tab=pivovary_ostatni&pivovar=Pivovar Lanius" target="_blank"></movie>
<movie title="U Hušků (Běleč nad Orlicí)" file="target" height="10" width="10" lat="50.1973081" long="15.9420158" fixed_size="true" url="/pivovary_databaze.php?id=1&tab=pivovary_cr&pivovar=U Hušků" target="_blank"></movie>
<movie title="Ferdinand (Benešov)" file="circle" color="d56e00" color_hover="ffa200" height="10" width="10" lat="49.7803650" long="14.6905350" fixed_size="true" url="/pivovary_databaze.php?id=2&tab=pivovary_cr&pivovar=Ferdinand" target="_blank"></movie>
<movie title="Berounský Medvěd" file="target" height="10" width="10" lat="49.9570269" long="14.0719619" fixed_size="true" url="/pivovary_databaze.php?id=3&tab=pivovary_cr&pivovar=Berounský Medvěd" target="_blank"></movie>
<movie title="Skřečoňský žabák (Bohumín)" file="target" height="10" width="10" lat="49.8992069" long="18.3737189" fixed_size="true" url="/pivovary_databaze.php?id=4&tab=pivovary_cr&pivovar=Skřečoňský žabák" target="_blank"></movie>
<movie title="Líšeňský pivovar (Brno)" file="target" height="10" width="10" lat="49.2107972" long="16.6797350" fixed_size="true" url="/pivovary_databaze.php?id=5&tab=pivovary_cr&pivovar=Líšeňský pivovar" target="_blank"></movie>
<movie title="Magistr (Brno)" file="target" height="10" width="10" lat="49.2094469" long="16.5994603" fixed_size="true" url="/pivovary_databaze.php?id=6&tab=pivovary_cr&pivovar=Magistr" target="_blank"></movie>
<movie title="Pegas (Brno)" file="target" height="10" width="10" lat="49.1962200" long="16.6070681" fixed_size="true" url="/pivovary_databaze.php?id=7&tab=pivovary_cr&pivovar=Pegas" target="_blank"></movie>
<movie title="Starobrno" file="circle" color="d56e00" color_hover="ffa200" height="10" width="10" lat="49.1910931" long="16.5917950" fixed_size="true" url="/pivovary_databaze.php?id=8&tab=pivovary_cr&pivovar=Starobrno" target="_blank"></movie>
<movie title="U Richarda (Brno)" file="target" height="10" width="10" lat="49.2072189" long="16.4831522" fixed_size="true" url="/pivovary_databaze.php?id=9&tab=pivovary_cr&pivovar=U Richarda" target="_blank"></movie>
<movie title="Opat (Broumov - Olivětín)" file="circle" color="d56e00" color_hover="ffa200" height="10" width="10" lat="50.6036789" long="16.3344969" fixed_size="true" url="/pivovary_databaze.php?id=10&tab=pivovary_cr&pivovar=Opat" target="_blank"></movie>
<movie title="Matuška (Broumy)" file="target" height="10" width="10" lat="49.9550131" long="13.8515119" fixed_size="true" url="/pivovary_databaze.php?id=11&tab=pivovary_cr&pivovar=Matuška" target="_blank"></movie>
<movie title="Herold (Březnice)" file="target" height="10" width="10" lat="49.5575142" long="13.9584997" fixed_size="true" url="/pivovary_databaze.php?id=12&tab=pivovary_cr&pivovar=Herold" target="_blank"></movie>
<movie title="Pod Kněží Horou (Bzenec)" file="target" height="10" width="10" lat="48.9731422" long="17.2886958" fixed_size="true" url="/pivovary_databaze.php?id=13&tab=pivovary_cr&pivovar=Pod Kněží Horou" target="_blank"></movie>
<movie title="Pivovar Černá Hora" file="circle" color="d56e00" color_hover="ffa200" height="10" width="10" lat="49.4151842" long="16.5810231" fixed_size="true" url="/pivovary_databaze.php?id=14&tab=pivovary_cr&pivovar=Pivovar Černá Hora" target="_blank"></movie>
<movie title="Budějovický Budvar" file="circle" color="d56e00" color_hover="ffa200" height="10" width="10" lat="48.9934142" long="14.4766072" fixed_size="true" url="/pivovary_databaze.php?id=15&tab=pivovary_cr&pivovar=Budějovický Budvar" target="_blank"></movie>
<movie title="Samson (České Budějovice)" file="circle" color="d56e00" color_hover="ffa200" height="10" width="10" lat="48.9639722" long="14.4745919" fixed_size="true" url="/pivovary_databaze.php?id=16&tab=pivovary_cr&pivovar=Samson" target="_blank"></movie>
<movie title="Eggenberg (Český Krumlov)" file="target" height="10" width="10" lat="48.8123250" long="14.3198619" fixed_size="true" url="/pivovary_databaze.php?id=17&tab=pivovary_cr&pivovar=Eggenberg" target="_blank"></movie>
<movie title="U Bizona (Čižice)" file="target" height="10" width="10" lat="49.6498381" long="13.3991431" fixed_size="true" url="/pivovary_databaze.php?id=19&tab=pivovary_cr&pivovar=U Bizona" target="_blank"></movie>
<movie title="Pivovar Dalešice" file="target" height="10" width="10" lat="49.1308800" long="16.0798889" fixed_size="true" url="/pivovary_databaze.php?id=20&tab=pivovary_cr&pivovar=Pivovar Dalešice" target="_blank"></movie>
<movie title="Zámecký pivovar (Dětenice)" file="target" height="10" width="10" lat="50.3694869" long="15.1715831" fixed_size="true" url="/pivovary_databaze.php?id=21&tab=pivovary_cr&pivovar=Zámecký pivovar" target="_blank"></movie>
<movie title="Rampušák (Dobruška)" file="target" height="10" width="10" lat="50.2947531" long="16.1622150" fixed_size="true" url="/pivovary_databaze.php?id=22&tab=pivovary_cr&pivovar=Rampušák" target="_blank"></movie>
<movie title="Modrá Hvězda (Dobřany)" file="target" height="10" width="10" lat="49.6554250" long="13.2900369" fixed_size="true" url="/pivovary_databaze.php?id=23&tab=pivovary_cr&pivovar=Modrá Hvězda" target="_blank"></movie>
<movie title="Mazák (Dolní Bojanovice)" file="target" height="10" width="10" lat="48.8600731" long="17.0275647" fixed_size="true" url="/pivovary_databaze.php?id=24&tab=pivovary_cr&pivovar=Mazák" target="_blank"></movie>
<movie title="Tambor (Dvůr Králové nad Labem)" file="target" height="10" width="10" lat="50.4198011" long="15.8089269" fixed_size="true" url="/pivovary_databaze.php?id=25&tab=pivovary_cr&pivovar=Tambor" target="_blank"></movie>
<movie title="Holba (Hanušovice)" file="circle" color="d56e00" color_hover="ffa200" height="10" width="10" lat="50.0699300" long="16.9276889" fixed_size="true" url="/pivovary_databaze.php?id=27&tab=pivovary_cr&pivovar=Holba" target="_blank"></movie>
<movie title="Novosad & syn (Harrachov)" file="target" height="10" width="10" lat="50.7824708" long="15.4194900" fixed_size="true" url="/pivovary_databaze.php?id=28&tab=pivovary_cr&pivovar=Novosad & syn" target="_blank"></movie>
<movie title="Rebel (Havlíčkův Brod)" file="circle" color="d56e00" color_hover="ffa200" height="10" width="10" lat="49.6102550" long="15.5766069" fixed_size="true" url="/pivovary_databaze.php?id=29&tab=pivovary_cr&pivovar=Rebel" target="_blank"></movie>
<movie title="Rychtář (Hlinsko)" file="circle" color="d56e00" color_hover="ffa200" height="10" width="10" lat="49.7600200" long="15.9149431" fixed_size="true" url="/pivovary_databaze.php?id=30&tab=pivovary_cr&pivovar=Rychtář" target="_blank"></movie>
<movie title="Avar (Hlučín)" file="target" height="10" width="10" lat="49.8978269" long="18.1873731" fixed_size="true" url="/pivovary_databaze.php?id=31&tab=pivovary_cr&pivovar=Avar" target="_blank"></movie>
<movie title="Kunc (Hodonín)" file="target" height="10" width="10" lat="48.8504061" long="17.1276600" fixed_size="true" url="/pivovary_databaze.php?id=32&tab=pivovary_cr&pivovar=Kunc" target="_blank"></movie>
<movie title="Kozlíček (Horní Dubenky)" file="target" height="10" width="10" lat="49.2566450" long="15.3108669" fixed_size="true" url="/pivovary_databaze.php?id=33&tab=pivovary_cr&pivovar=Kozlíček" target="_blank"></movie>
<movie title="Pod Kyčmolem (Horní Lomná)" file="target" height="10" width="10" lat="49.5426150" long="18.6433850" fixed_size="true" url="/pivovary_databaze.php?id=34&tab=pivovary_cr&pivovar=Pod Kyčmolem" target="_blank"></movie>
<movie title="Kubík (Hradec Králové)" file="target" height="10" width="10" lat="50.1747869" long="15.8477358" fixed_size="true" url="/pivovary_databaze.php?id=36&tab=pivovary_cr&pivovar=Kubík" target="_blank"></movie>
<movie title="Rambousek (Hradec Králové)" file="target" height="10" width="10" lat="50.2098981" long="15.8353819" fixed_size="true" url="/pivovary_databaze.php?id=37&tab=pivovary_cr&pivovar=Rambousek" target="_blank"></movie>
<movie title="Hastrman (Hroznětín-Velký Rybník)" file="target" height="10" width="10" lat="50.2878919" long="12.8656942" fixed_size="true" url="/pivovary_databaze.php?id=38&tab=pivovary_cr&pivovar=Hastrman" target="_blank"></movie>
<movie title="Dolní Sklenov (Hukvaldy)" file="target" height="10" width="10" lat="49.6332950" long="18.2162750" fixed_size="true" url="/pivovary_databaze.php?id=39&tab=pivovary_cr&pivovar=Dolní Sklenov" target="_blank"></movie>
<movie title="Bernard (Humpolec)" file="circle" color="d56e00" color_hover="ffa200" height="10" width="10" lat="49.5399528" long="15.3597800" fixed_size="true" url="/pivovary_databaze.php?id=40&tab=pivovary_cr&pivovar=Bernard" target="_blank"></movie>
<movie title="Chodovar (Chodová Planá)" file="circle" color="d56e00" color_hover="ffa200" height="10" width="10" lat="49.8932000" long="12.7273100" fixed_size="true" url="/pivovary_databaze.php?id=42&tab=pivovary_cr&pivovar=Chodovar" target="_blank"></movie>
<movie title="Pivovar Chotěboř" file="circle" color="d56e00" color_hover="ffa200" height="10" width="10" lat="49.7207189" long="15.6701822" fixed_size="true" url="/pivovary_databaze.php?id=43&tab=pivovary_cr&pivovar=Pivovar Chotěboř" target="_blank"></movie>
<movie title="Pivovarský dvůr   (Chýně)" file="target" height="10" width="10" lat="50.0620750" long="14.2317892" fixed_size="true" url="/pivovary_databaze.php?id=44&tab=pivovary_cr&pivovar=Pivovarský dvůr  " target="_blank"></movie>
<movie title="Zámecký pivovar (Chyše)" file="target" height="10" width="10" lat="50.1056189" long="13.2476019" fixed_size="true" url="/pivovary_databaze.php?id=45&tab=pivovary_cr&pivovar=Zámecký pivovar" target="_blank"></movie>
<movie title="Minipivovar (Jeseník)" file="target" height="10" width="10" lat="50.2323442" long="17.2011511" fixed_size="true" url="/pivovary_databaze.php?id=46&tab=pivovary_cr&pivovar=Minipivovar" target="_blank"></movie>
<movie title="Ježek (Jihlava)" file="circle" color="d56e00" color_hover="ffa200" height="10" width="10" lat="49.3969842" long="15.5821969" fixed_size="true" url="/pivovary_databaze.php?id=47&tab=pivovary_cr&pivovar=Ježek" target="_blank"></movie>
<movie title="Radniční restaurace a pivovar (Jihlava)" file="target" height="10" width="10" lat="49.3962542" long="15.5908969" fixed_size="true" url="/pivovary_databaze.php?id=48&tab=pivovary_cr&pivovar=Radniční restaurace a pivovar" target="_blank"></movie>
<movie title="Hubertus (Kácov)" file="circle" color="d56e00" color_hover="ffa200" height="10" width="10" lat="49.7768550" long="15.0293869" fixed_size="true" url="/pivovary_databaze.php?id=49&tab=pivovary_cr&pivovar=Hubertus" target="_blank"></movie>
<movie title="Štiřínský pivovar Magnát (Kamenice-Štiřín)" file="target" height="10" width="10" lat="49.9169581" long="14.5955581" fixed_size="true" url="/pivovary_databaze.php?id=50&tab=pivovary_cr&pivovar=Štiřínský pivovar Magnát" target="_blank"></movie>
<movie title="U Kozlíků (Kladno)" file="target" height="10" width="10" lat="50.1444972" long="14.0917492" fixed_size="true" url="/pivovary_databaze.php?id=51&tab=pivovary_cr&pivovar=U Kozlíků" target="_blank"></movie>
<movie title="Klášter (Klášter Hradiště nad Jizerou)" file="circle" color="d56e00" color_hover="ffa200" height="10" width="10" lat="50.5270850" long="14.9488050" fixed_size="true" url="/pivovary_databaze.php?id=52&tab=pivovary_cr&pivovar=Klášter" target="_blank"></movie>
<movie title="Svatý Ján (Kolín)" file="target" height="10" width="10" lat="50.0032711" long="15.2086453" fixed_size="true" url="/pivovary_databaze.php?id=53&tab=pivovary_cr&pivovar=Svatý Ján" target="_blank"></movie>
<movie title="Pivovar Kout na Šumavě" file="target" height="10" width="10" lat="49.4014361" long="12.9996250" fixed_size="true" url="/pivovary_databaze.php?id=54&tab=pivovary_cr&pivovar=Pivovar Kout na Šumavě" target="_blank"></movie>
<movie title="Valašský pivovar (Kozlovice)" file="target" height="10" width="10" lat="49.5926431" long="18.2560928" fixed_size="true" url="/pivovary_databaze.php?id=55&tab=pivovary_cr&pivovar=Valašský pivovar" target="_blank"></movie>
<movie title="Minipivovar (Krmelín)" file="target" height="10" width="10" lat="49.7292461" long="18.2359969" fixed_size="true" url="/pivovary_databaze.php?id=56&tab=pivovary_cr&pivovar=Minipivovar" target="_blank"></movie>
<movie title="Černý Orel (Kroměříž)" file="target" height="10" width="10" lat="49.2983219" long="17.3923331" fixed_size="true" url="/pivovary_databaze.php?id=57&tab=pivovary_cr&pivovar=Černý Orel" target="_blank"></movie>
<movie title="Královský pivovar (Krušovice)" file="circle" color="d56e00" color_hover="ffa200" height="10" width="10" lat="50.1732750" long="13.7730431" fixed_size="true" url="/pivovary_databaze.php?id=58&tab=pivovary_cr&pivovar=Královský pivovar" target="_blank"></movie>
<movie title="Minipivovar Kvilda" file="target" height="10" width="10" lat="49.0205892" long="13.5793342" fixed_size="true" url="/pivovary_databaze.php?id=59&tab=pivovary_cr&pivovar=Minipivovar Kvilda" target="_blank"></movie>
<movie title="Slezan (Leskovec)" file="target" height="10" width="10" lat="49.8188678" long="17.9112961" fixed_size="true" url="/pivovary_databaze.php?id=60&tab=pivovary_cr&pivovar=Slezan" target="_blank"></movie>
<movie title="MMX Lety (Lety u Dobřichovic)" file="target" height="10" width="10" lat="49.9238442" long="14.2588092" fixed_size="true" url="/pivovary_databaze.php?id=61&tab=pivovary_cr&pivovar=MMX Lety" target="_blank"></movie>
<movie title="Krásná Studánka (Liberec)" file="target" height="10" width="10" lat="50.8106231" long="15.0315442" fixed_size="true" url="/pivovary_databaze.php?id=62&tab=pivovary_cr&pivovar=Krásná Studánka" target="_blank"></movie>
<movie title="Vendelín (Liberec)" file="target" height="10" width="10" lat="50.7606289" long="15.1125039" fixed_size="true" url="/pivovary_databaze.php?id=63&tab=pivovary_cr&pivovar=Vendelín" target="_blank"></movie>
<movie title="Konrád (Liberec-Vratislavice nad Nisou)" file="circle" color="d56e00" color_hover="ffa200" height="10" width="10" lat="50.7522161" long="15.0887539" fixed_size="true" url="/pivovary_databaze.php?id=64&tab=pivovary_cr&pivovar=Konrád" target="_blank"></movie>
<movie title="Společenský pivovar (Lipník nad Bečvou)" file="target" height="10" width="10" lat="49.5265419" long="17.5872089" fixed_size="true" url="/pivovary_databaze.php?id=65&tab=pivovary_cr&pivovar=Společenský pivovar" target="_blank"></movie>
<movie title="Koliba (Litoměřice)" file="target" height="10" width="10" lat="50.5365881" long="14.1532261" fixed_size="true" url="/pivovary_databaze.php?id=66&tab=pivovary_cr&pivovar=Koliba" target="_blank"></movie>
<movie title="Labuť (Litoměřice)" file="target" height="10" width="10" lat="50.5350739" long="14.1349808" fixed_size="true" url="/pivovary_databaze.php?id=67&tab=pivovary_cr&pivovar=Labuť" target="_blank"></movie>
<movie title="Pivovar Litovel" file="circle" color="d56e00" color_hover="ffa200" height="10" width="10" lat="49.6946400" long="17.0764642" fixed_size="true" url="/pivovary_databaze.php?id=68&tab=pivovary_cr&pivovar=Pivovar Litovel" target="_blank"></movie>
<movie title="Svatý Florián (Loket)" file="target" height="10" width="10" lat="50.1867592" long="12.7527647" fixed_size="true" url="/pivovary_databaze.php?id=69&tab=pivovary_cr&pivovar=Svatý Florián" target="_blank"></movie>
<movie title="Bravůr (Loučná nad Desnou)" file="target" height="10" width="10" lat="50.0677142" long="17.0925431" fixed_size="true" url="/pivovary_databaze.php?id=70&tab=pivovary_cr&pivovar=Bravůr" target="_blank"></movie>
<movie title="Skalák (Malý Rohozec)" file="circle" color="d56e00" color_hover="ffa200" height="10" width="10" lat="50.6107900" long="15.1479631" fixed_size="true" url="/pivovary_databaze.php?id=71&tab=pivovary_cr&pivovar=Skalák" target="_blank"></movie>
<movie title="Medlešice (Medlešice)" file="target" height="10" width="10" lat="49.9777719" long="15.7706647" fixed_size="true" url="/pivovary_databaze.php?id=72&tab=pivovary_cr&pivovar=Medlešice" target="_blank"></movie>
<movie title="Mamut (Mikulov)" file="target" height="10" width="10" lat="48.8017431" long="16.6342672" fixed_size="true" url="/pivovary_databaze.php?id=73&tab=pivovary_cr&pivovar=Mamut" target="_blank"></movie>
<movie title="U bojiště 1866 (Miletín)" file="target" height="10" width="10" lat="50.4040931" long="15.6812108" fixed_size="true" url="/pivovary_databaze.php?id=74&tab=pivovary_cr&pivovar=U bojiště 1866" target="_blank"></movie>
<movie title="Kahan (Most)" file="target" height="10" width="10" lat="50.4971422" long="13.6407869" fixed_size="true" url="/pivovary_databaze.php?id=75&tab=pivovary_cr&pivovar=Kahan" target="_blank"></movie>
<movie title="Poddžbánský pivovar (Mutějovice)" file="target" height="10" width="10" lat="50.1935769" long="13.7077231" fixed_size="true" url="/pivovary_databaze.php?id=76&tab=pivovary_cr&pivovar=Poddžbánský pivovar" target="_blank"></movie>
<movie title="Primátor (Náchod)" file="circle" color="d56e00" color_hover="ffa200" height="10" width="10" lat="50.4149703" long="16.1713739" fixed_size="true" url="/pivovary_databaze.php?id=77&tab=pivovary_cr&pivovar=Primátor" target="_blank"></movie>
<movie title="Radegast (Nošovice)" file="circle" color="d56e00" color_hover="ffa200" height="10" width="10" lat="49.6616669" long="18.4280561" fixed_size="true" url="/pivovary_databaze.php?id=78&tab=pivovary_cr&pivovar=Radegast" target="_blank"></movie>
<movie title="Pivovar Nová Paka" file="circle" color="d56e00" color_hover="ffa200" height="10" width="10" lat="50.4872550" long="15.5244211" fixed_size="true" url="/pivovary_databaze.php?id=79&tab=pivovary_cr&pivovar=Pivovar Nová Paka" target="_blank"></movie>
<movie title="Pivovar Nymburk" file="circle" color="d56e00" color_hover="ffa200" height="10" width="10" lat="50.1780292" long="15.0385853" fixed_size="true" url="/pivovary_databaze.php?id=80&tab=pivovary_cr&pivovar=Pivovar Nymburk" target="_blank"></movie>
<movie title="Moritz (Olomouc)" file="target" height="10" width="10" lat="49.5906428" long="17.2494739" fixed_size="true" url="/pivovary_databaze.php?id=81&tab=pivovary_cr&pivovar=Moritz" target="_blank"></movie>
<movie title="Svatováclavský pivovar (Olomouc)" file="target" height="10" width="10" lat="49.5958661" long="17.2587081" fixed_size="true" url="/pivovary_databaze.php?id=82&tab=pivovary_cr&pivovar=Svatováclavský pivovar" target="_blank"></movie>
<movie title="Zámecký pivovar (Bratčice)" file="target" height="10" width="10" lat="49.0651500" long="16.5232222" fixed_size="true" url="/pivovary_databaze.php?id=83&tab=pivovary_cr&pivovar=Zámecký pivovar" target="_blank"></movie>
<movie title="Biovar (Ostrava)" file="target" height="10" width="10" lat="49.8400181" long="18.2886150" fixed_size="true" url="/pivovary_databaze.php?id=84&tab=pivovary_cr&pivovar=Biovar" target="_blank"></movie>
<movie title="Ostravar" file="circle" color="d56e00" color_hover="ffa200" height="10" width="10" lat="49.8388011" long="18.2738469" fixed_size="true" url="/pivovary_databaze.php?id=85&tab=pivovary_cr&pivovar=Ostravar" target="_blank"></movie>
<movie title="Zámecký minipivovar Zábřeh (Ostrava)" file="target" height="10" width="10" lat="49.8072111" long="18.2401981" fixed_size="true" url="/pivovary_databaze.php?id=86&tab=pivovary_cr&pivovar=Zámecký minipivovar Zábřeh" target="_blank"></movie>
<movie title="Rodinný minipivovar (Pacov)" file="target" height="10" width="10" lat="49.4715831" long="15.0022208" fixed_size="true" url="/pivovary_databaze.php?id=87&tab=pivovary_cr&pivovar=Rodinný minipivovar" target="_blank"></movie>
<movie title="Pernštejn (Pardubice)" file="circle" color="d56e00" color_hover="ffa200" height="10" width="10" lat="50.0354300" long="15.7621400" fixed_size="true" url="/pivovary_databaze.php?id=88&tab=pivovary_cr&pivovar=Pernštejn" target="_blank"></movie>
<movie title="Poutník (Pelhřimov)" file="circle" color="d56e00" color_hover="ffa200" height="10" width="10" lat="49.4306311" long="15.2204942" fixed_size="true" url="/pivovary_databaze.php?id=89&tab=pivovary_cr&pivovar=Poutník" target="_blank"></movie>
<movie title="Groll (Plzeň)" file="target" height="10" width="10" lat="49.7500658" long="13.3798011" fixed_size="true" url="/pivovary_databaze.php?id=90&tab=pivovary_cr&pivovar=Groll" target="_blank"></movie>
<movie title="Plzeňský Prazdroj" file="circle" color="d56e00" color_hover="ffa200" height="10" width="10" lat="49.7464831" long="13.3862689" fixed_size="true" url="/pivovary_databaze.php?id=91&tab=pivovary_cr&pivovar=Plzeňský Prazdroj" target="_blank"></movie>
<movie title="Purkmistr (Plzeň)" file="target" height="10" width="10" lat="49.6988650" long="13.4139381" fixed_size="true" url="/pivovary_databaze.php?id=92&tab=pivovary_cr&pivovar=Purkmistr" target="_blank"></movie>
<movie title="U Rytíře Lochoty (Plzeň)" file="target" height="10" width="10" lat="49.7702442" long="13.3633178" fixed_size="true" url="/pivovary_databaze.php?id=93&tab=pivovary_cr&pivovar=U Rytíře Lochoty" target="_blank"></movie>
<movie title="U Pašáka (Plzeň)" file="target" height="10" width="10" lat="49.7467769" long="13.3671692" fixed_size="true" url="/pivovary_databaze.php?id=94&tab=pivovary_cr&pivovar=U Pašáka" target="_blank"></movie>
<movie title="Pivovar Podkováň" file="target" height="10" width="10" lat="50.4189961" long="14.7828653" fixed_size="true" url="/pivovary_databaze.php?id=95&tab=pivovary_cr&pivovar=Pivovar Podkováň" target="_blank"></movie>
<movie title="Měšťanský pivovar (Polička)" file="circle" color="d56e00" color_hover="ffa200" height="10" width="10" lat="49.7107431" long="16.2600608" fixed_size="true" url="/pivovary_databaze.php?id=96&tab=pivovary_cr&pivovar=Měšťanský pivovar" target="_blank"></movie>
<movie title="Jihoměstský pivovar" file="target" height="10" width="10" lat="50.0314881" long="14.5198650" fixed_size="true" url="/pivovary_databaze.php?id=97&tab=pivovary_cr&pivovar=Jihoměstský pivovar" target="_blank"></movie>
<movie title="Klášterní pivovar Strahov" file="target" height="10" width="10" lat="50.0868969" long="14.3885592" fixed_size="true" url="/pivovary_databaze.php?id=98&tab=pivovary_cr&pivovar=Klášterní pivovar Strahov" target="_blank"></movie>
<movie title="Novoměstský pivovar" file="target" height="10" width="10" lat="50.0796069" long="14.4230292" fixed_size="true" url="/pivovary_databaze.php?id=99&tab=pivovary_cr&pivovar=Novoměstský pivovar" target="_blank"></movie>
<movie title="Pivovarský dům" file="target" height="10" width="10" lat="50.0753572" long="14.4238239" fixed_size="true" url="/pivovary_databaze.php?id=100&tab=pivovary_cr&pivovar=Pivovarský dům" target="_blank"></movie>
<movie title="Rukodělný pivovárek Třebonice" file="target" height="10" width="10" lat="50.0439531" long="14.2814769" fixed_size="true" url="/pivovary_databaze.php?id=101&tab=pivovary_cr&pivovar=Rukodělný pivovárek Třebonice" target="_blank"></movie>
<movie title="Staropramen" file="circle" color="d56e00" color_hover="ffa200" height="10" width="10" lat="50.0685450" long="14.4065550" fixed_size="true" url="/pivovary_databaze.php?id=102&tab=pivovary_cr&pivovar=Staropramen" target="_blank"></movie>
<movie title="Školní pivovar ČZU Praha-Suchdol" file="target" height="10" width="10" lat="50.1359119" long="14.3707900" fixed_size="true" url="/pivovary_databaze.php?id=103&tab=pivovary_cr&pivovar=Školní pivovar ČZU Praha-Suchdol" target="_blank"></movie>
<movie title="U Bansethů" file="target" height="10" width="10" lat="50.0628350" long="14.4398519" fixed_size="true" url="/pivovary_databaze.php?id=104&tab=pivovary_cr&pivovar=U Bansethů" target="_blank"></movie>
<movie title="U Bulovky" file="target" height="10" width="10" lat="50.1152481" long="14.4663111" fixed_size="true" url="/pivovary_databaze.php?id=105&tab=pivovary_cr&pivovar=U Bulovky" target="_blank"></movie>
<movie title="U Dvou koček" file="target" height="10" width="10" lat="50.0835122" long="14.4204872" fixed_size="true" url="/pivovary_databaze.php?id=106&tab=pivovary_cr&pivovar=U Dvou koček" target="_blank"></movie>
<movie title="U Fleků" file="target" height="10" width="10" lat="50.0789181" long="14.4169839" fixed_size="true" url="/pivovary_databaze.php?id=107&tab=pivovary_cr&pivovar=U Fleků" target="_blank"></movie>
<movie title="U Medvídků" file="target" height="10" width="10" lat="50.0829631" long="14.4187000" fixed_size="true" url="/pivovary_databaze.php?id=108&tab=pivovary_cr&pivovar=U Medvídků" target="_blank"></movie>
<movie title="U Valšů" file="target" height="10" width="10" lat="50.0836408" long="14.4146761" fixed_size="true" url="/pivovary_databaze.php?id=109&tab=pivovary_cr&pivovar=U Valšů" target="_blank"></movie>
<movie title="U Krále Ječmínka (Prostějov)" file="target" height="10" width="10" lat="49.4722592" long="17.1166019" fixed_size="true" url="/pivovary_databaze.php?id=110&tab=pivovary_cr&pivovar=U Krále Ječmínka" target="_blank"></movie>
<movie title="U Tří králů (Prostějov)" file="target" height="10" width="10" lat="49.4717192" long="17.0893469" fixed_size="true" url="/pivovary_databaze.php?id=111&tab=pivovary_cr&pivovar=U Tří králů" target="_blank"></movie>
<movie title="Platan (Protivín)" file="circle" color="d56e00" color_hover="ffa200" height="10" width="10" lat="49.2046042" long="14.2176650" fixed_size="true" url="/pivovary_databaze.php?id=112&tab=pivovary_cr&pivovar=Platan" target="_blank"></movie>
<movie title="U Bezoušků (Průhonice)" file="target" height="10" width="10" lat="50.0015050" long="14.5608050" fixed_size="true" url="/pivovary_databaze.php?id=113&tab=pivovary_cr&pivovar=U Bezoušků" target="_blank"></movie>
<movie title="Parník (Přerov)" file="target" height="10" width="10" lat="49.4449650" long="17.4514950" fixed_size="true" url="/pivovary_databaze.php?id=114&tab=pivovary_cr&pivovar=Parník" target="_blank"></movie>
<movie title="Zubr (Přerov)" file="circle" color="d56e00" color_hover="ffa200" height="10" width="10" lat="49.4502981" long="17.4476611" fixed_size="true" url="/pivovary_databaze.php?id=115&tab=pivovary_cr&pivovar=Zubr" target="_blank"></movie>
<movie title="Bakalář (Rakovník)" file="circle" color="d56e00" color_hover="ffa200" height="10" width="10" lat="50.1065119" long="13.7276697" fixed_size="true" url="/pivovary_databaze.php?id=116&tab=pivovary_cr&pivovar=Bakalář" target="_blank"></movie>
<movie title="Na Mlýně (Ratíškovice)" file="target" height="10" width="10" lat="48.9178581" long="17.1605261" fixed_size="true" url="/pivovary_databaze.php?id=117&tab=pivovary_cr&pivovar=Na Mlýně" target="_blank"></movie>
<movie title="Rohan (Rohov)" file="target" height="10" width="10" lat="50.0153281" long="18.0730419" fixed_size="true" url="/pivovary_databaze.php?id=118&tab=pivovary_cr&pivovar=Rohan" target="_blank"></movie>
<movie title="U Stočesů (Rokycany)" file="target" height="10" width="10" lat="49.7380731" long="13.5850972" fixed_size="true" url="/pivovary_databaze.php?id=119&tab=pivovary_cr&pivovar=U Stočesů" target="_blank"></movie>
<movie title="Pivovar Rožnov pod Radhoštěm" file="target" height="10" width="10" lat="49.4567331" long="18.1368350" fixed_size="true" url="/pivovary_databaze.php?id=120&tab=pivovary_cr&pivovar=Pivovar Rožnov pod Radhoštěm" target="_blank"></movie>
<movie title="Městský podoorlický pivovar (Rychnov nad Kněžnou)" file="target" height="10" width="10" lat="50.1716019" long="16.2786631" fixed_size="true" url="/pivovary_databaze.php?id=121&tab=pivovary_cr&pivovar=Městský podoorlický pivovar" target="_blank"></movie>
<movie title="Excelent (Rýmařov)" file="target" height="10" width="10" lat="49.9303042" long="17.2688611" fixed_size="true" url="/pivovary_databaze.php?id=122&tab=pivovary_cr&pivovar=Excelent" target="_blank"></movie>
<movie title="Spolkový pivovar (Zlín - Malenovice)" file="target" height="10" width="10" lat="49.2056108" long="17.5971389" fixed_size="true" url="/pivovary_databaze.php?id=123&tab=pivovary_cr&pivovar=Spolkový pivovar" target="_blank"></movie>
<movie title="Vítek z Prčice" file="target" height="10" width="10" lat="49.5742011" long="14.5286169" fixed_size="true" url="/pivovary_databaze.php?id=124&tab=pivovary_cr&pivovar=Vítek z Prčice" target="_blank"></movie>
<movie title="Kvasar (Sentice)" file="target" height="10" width="10" lat="49.3090422" long="16.4436250" fixed_size="true" url="/pivovary_databaze.php?id=125&tab=pivovary_cr&pivovar=Kvasar" target="_blank"></movie>
<movie title="Antoš (Slaný)" file="target" height="10" width="10" lat="50.2299831" long="14.0886261" fixed_size="true" url="/pivovary_databaze.php?id=126&tab=pivovary_cr&pivovar=Antoš" target="_blank"></movie>
<movie title="Permon (Sokolov)" file="target" height="10" width="10" lat="50.1783800" long="12.6373661" fixed_size="true" url="/pivovary_databaze.php?id=128&tab=pivovary_cr&pivovar=Permon" target="_blank"></movie>
<movie title="Měšťanský pivovar (Strakonice)" file="circle" color="d56e00" color_hover="ffa200" height="10" width="10" lat="49.2595831" long="13.8975189" fixed_size="true" url="/pivovary_databaze.php?id=129&tab=pivovary_cr&pivovar=Měšťanský pivovar" target="_blank"></movie>
<movie title="Pivovar Svijany" file="circle" color="d56e00" color_hover="ffa200" height="10" width="10" lat="50.5728839" long="15.0542850" fixed_size="true" url="/pivovary_databaze.php?id=131&tab=pivovary_cr&pivovar=Pivovar Svijany" target="_blank"></movie>
<movie title="Na Kopečku (Svitavy)" file="target" height="10" width="10" lat="49.7521800" long="16.4608189" fixed_size="true" url="/pivovary_databaze.php?id=132&tab=pivovary_cr&pivovar=Na Kopečku" target="_blank"></movie>
<movie title="Radouš (Šťáhlavy)" file="target" height="10" width="10" lat="49.6755978" long="13.5038342" fixed_size="true" url="/pivovary_databaze.php?id=133&tab=pivovary_cr&pivovar=Radouš" target="_blank"></movie>
<movie title="Trubač (Štramberk)" file="target" height="10" width="10" lat="49.5909281" long="18.1170542" fixed_size="true" url="/pivovary_databaze.php?id=134&tab=pivovary_cr&pivovar=Trubač" target="_blank"></movie>
<movie title="Krakonoš (Trutnov)" file="circle" color="d56e00" color_hover="ffa200" height="10" width="10" lat="50.5614300" long="15.9094142" fixed_size="true" url="/pivovary_databaze.php?id=135&tab=pivovary_cr&pivovar=Krakonoš" target="_blank"></movie>
<movie title="Regent (Třeboň)" file="circle" color="d56e00" color_hover="ffa200" height="10" width="10" lat="49.0026300" long="14.7722919" fixed_size="true" url="/pivovary_databaze.php?id=136&tab=pivovary_cr&pivovar=Regent" target="_blank"></movie>
<movie title="Minipivovar Třinec-Karpentná" file="target" height="10" width="10" lat="49.6348158" long="18.6857181" fixed_size="true" url="/pivovary_databaze.php?id=137&tab=pivovary_cr&pivovar=Minipivovar Třinec-Karpentná" target="_blank"></movie>
<movie title="Pivovarský dvůr Lipan Dražič (Týn nad Vltavou)" file="target" height="10" width="10" lat="49.3056742" long="14.3807581" fixed_size="true" url="/pivovary_databaze.php?id=138&tab=pivovary_cr&pivovar=Pivovarský dvůr Lipan Dražič" target="_blank"></movie>
<movie title="Janáček (Uherský Brod)" file="circle" color="d56e00" color_hover="ffa200" height="10" width="10" lat="49.0240172" long="17.6552469" fixed_size="true" url="/pivovary_databaze.php?id=140&tab=pivovary_cr&pivovar=Janáček" target="_blank"></movie>
<movie title="Slepý Krtek (Ujkovice)" file="target" height="10" width="10" lat="50.3625369" long="15.0958250" fixed_size="true" url="/pivovary_databaze.php?id=141&tab=pivovary_cr&pivovar=Slepý Krtek" target="_blank"></movie>
<movie title="Únětický pivovar" file="target" height="10" width="10" lat="50.1490492" long="14.3542011" fixed_size="true" url="/pivovary_databaze.php?id=142&tab=pivovary_cr&pivovar=Únětický pivovar" target="_blank"></movie>
<movie title="Na Rychtě (Ústí nad Labem)" file="target" height="10" width="10" lat="50.6596978" long="14.0417992" fixed_size="true" url="/pivovary_databaze.php?id=143&tab=pivovary_cr&pivovar=Na Rychtě" target="_blank"></movie>
<movie title="Kocour (Varnsdorf)" file="target" height="10" width="10" lat="50.9199000" long="14.6036292" fixed_size="true" url="/pivovary_databaze.php?id=144&tab=pivovary_cr&pivovar=Kocour" target="_blank"></movie>
<movie title="Březňák (Velké Březno)" file="circle" color="d56e00" color_hover="ffa200" height="10" width="10" lat="50.6646469" long="14.1389331" fixed_size="true" url="/pivovary_databaze.php?id=146&tab=pivovary_cr&pivovar=Březňák" target="_blank"></movie>
<movie title="Harrach (Velké Meziříčí)" file="target" height="10" width="10" lat="49.3547350" long="16.0100811" fixed_size="true" url="/pivovary_databaze.php?id=147&tab=pivovary_cr&pivovar=Harrach" target="_blank"></movie>
<movie title="Velkopopovický Kozel" file="circle" color="d56e00" color_hover="ffa200" height="10" width="10" lat="49.9225289" long="14.6360739" fixed_size="true" url="/pivovary_databaze.php?id=148&tab=pivovary_cr&pivovar=Velkopopovický Kozel" target="_blank"></movie>
<movie title="Šumavský pivovar (Vimperk)" file="target" height="10" width="10" lat="49.0521700" long="13.7752897" fixed_size="true" url="/pivovary_databaze.php?id=149&tab=pivovary_cr&pivovar=Šumavský pivovar" target="_blank"></movie>
<movie title="Koníček (Vojkovice)" file="target" height="10" width="10" lat="49.6748261" long="18.4767100" fixed_size="true" url="/pivovary_databaze.php?id=150&tab=pivovary_cr&pivovar=Koníček" target="_blank"></movie>
<movie title="Pivovarská bašta (Vrchlabí)" file="target" height="10" width="10" lat="50.6429661" long="15.6085261" fixed_size="true" url="/pivovary_databaze.php?id=151&tab=pivovary_cr&pivovar=Pivovarská bašta" target="_blank"></movie>
<movie title="Valášek (Vsetín)" file="target" height="10" width="10" lat="49.3425231" long="17.9934408" fixed_size="true" url="/pivovary_databaze.php?id=152&tab=pivovary_cr&pivovar=Valášek" target="_blank"></movie>
<movie title="Lobkowicz (Vysoký Chlumec)" file="circle" color="d56e00" color_hover="ffa200" height="10" width="10" lat="49.6144092" long="14.3917869" fixed_size="true" url="/pivovary_databaze.php?id=153&tab=pivovary_cr&pivovar=Lobkowicz" target="_blank"></movie>
<movie title="Pivovar Vyškov" file="circle" color="d56e00" color_hover="ffa200" height="10" width="10" lat="49.2761200" long="16.9991708" fixed_size="true" url="/pivovary_databaze.php?id=154&tab=pivovary_cr&pivovar=Pivovar Vyškov" target="_blank"></movie>
<movie title="Jakub (Vyšší Brod)" file="target" height="10" width="10" lat="48.6162158" long="14.3127869" fixed_size="true" url="/pivovary_databaze.php?id=155&tab=pivovary_cr&pivovar=Jakub" target="_blank"></movie>
<movie title="Bon (Zašová)" file="target" height="10" width="10" lat="49.4688061" long="17.9857758" fixed_size="true" url="/pivovary_databaze.php?id=156&tab=pivovary_cr&pivovar=Bon" target="_blank"></movie>
<movie title="Pivovarský dvůr (Zvíkovské Podhradí)" file="target" height="10" width="10" lat="49.4308031" long="14.1982989" fixed_size="true" url="/pivovary_databaze.php?id=157&tab=pivovary_cr&pivovar=Pivovarský dvůr" target="_blank"></movie>
<movie title="Žamberský kanec" file="target" height="10" width="10" lat="50.0871169" long="16.4607989" fixed_size="true" url="/pivovary_databaze.php?id=158&tab=pivovary_cr&pivovar=Žamberský kanec" target="_blank"></movie>
<movie title="Minipivovar Žumberk (Žár)" file="target" height="10" width="10" lat="48.7963919" long="14.6817761" fixed_size="true" url="/pivovary_databaze.php?id=159&tab=pivovary_cr&pivovar=Minipivovar Žumberk" target="_blank"></movie>
<movie title="U Orloje (Žatec)" file="target" height="10" width="10" lat="50.3245400" long="13.5445500" fixed_size="true" url="/pivovary_databaze.php?id=160&tab=pivovary_cr&pivovar=U Orloje" target="_blank"></movie>
<movie title="Žatecký pivovar" file="circle" color="d56e00" color_hover="ffa200" height="10" width="10" lat="50.3322389" long="13.5418472" fixed_size="true" url="/pivovary_databaze.php?id=161&tab=pivovary_cr&pivovar=Žatecký pivovar" target="_blank"></movie>
